{"type":"FeatureCollection","metadata":{"source_key":"dep_500yr_flood_mepdes_facility","source_name":"Maine DEP Sea Level Rise Study","source_url":"https://gis.maine.gov/mapservices/rest/services/dep/MaineDEPSeaLevelRiseStudy/MapServer/17","feature_count":6,"feature_cap":250},"features":[{"type":"Feature","id":1,"geometry":{"type":"Point","coordinates":[-68.78308027544341,44.77963519078765]},"properties":{"OBJECTID":1,"SITE_NAME":"BANGOR WWTF","COMPANY_NAME":"BANGOR CITY OF","ADDRESS_1":"760 MAIN ST","CITY":"BANGOR","NEPDES_LICENSE_ID":"ME0100781","MAINE_LICENSE_ID":"W-001041","SITE_TYPE":"Wastewater Treatment Facility"}},{"type":"Feature","id":2,"geometry":{"type":"Point","coordinates":[-70.67029080220841,44.499424217120556]},"properties":{"OBJECTID":2,"SITE_NAME":"RUMFORD POINT WWTF","COMPANY_NAME":"RUMFORD-MEXICO SEWER DISTRICT","ADDRESS_1":"RTE 2","CITY":"RUMFORD","NEPDES_LICENSE_ID":"ME0101486","MAINE_LICENSE_ID":"W-002685","SITE_TYPE":"Wastewater Treatment Facility"}},{"type":"Feature","id":3,"geometry":{"type":"Point","coordinates":[-69.61920056120339,44.56302217879214]},"properties":{"OBJECTID":3,"SITE_NAME":"HYDRO KENNEBEC","COMPANY_NAME":"HYDRO KENNEBEC LLC","ADDRESS_1":"51 SIMPSON AVE ","CITY":"WINSLOW","NEPDES_LICENSE_ID":"ME0036561","MAINE_LICENSE_ID":"W-007579","SITE_TYPE":"Other"}},{"type":"Feature","id":4,"geometry":{"type":"Point","coordinates":[-70.20463572816094,44.07566280203239]},"properties":{"OBJECTID":4,"SITE_NAME":"LEWISTON-AUBURN WWTF","COMPANY_NAME":"LEWISTON-AUBURN WATER POLLUTION CONTROL AUTHORITY","ADDRESS_1":"535 LINCOLN ST","CITY":"LEWISTON","NEPDES_LICENSE_ID":"ME0101478","MAINE_LICENSE_ID":"W-000682","SITE_TYPE":"Wastewater Treatment Facility"}},{"type":"Feature","id":5,"geometry":{"type":"Point","coordinates":[-68.78471555054705,44.77835096016069]},"properties":{"OBJECTID":5,"SITE_NAME":"COLD BROOK ENERGY INC.","COMPANY_NAME":"COLD BROOK ENERGY, INC.","ADDRESS_1":"809 MAIN RD N","CITY":"HAMPDEN","NEPDES_LICENSE_ID":"ME0002267","MAINE_LICENSE_ID":"W-000563","SITE_TYPE":"Marine Oil Terminal"}},{"type":"Feature","id":6,"geometry":{"type":"Point","coordinates":[-68.67744293804961,44.8923271403658]},"properties":{"OBJECTID":6,"SITE_NAME":"ORONO-VEAZIE WATER DISTRICT","COMPANY_NAME":"ORONO-VEAZIE WATER DISTRICT","ADDRESS_1":"47 PENOBSCOT ST","CITY":"ORONO","NEPDES_LICENSE_ID":"ME0102601","MAINE_LICENSE_ID":"W-007954","SITE_TYPE":"Wastewater Treatment Facility"}}]}