{"type":"FeatureCollection","metadata":{"source_key":"dep_8_8ft_slr_mepdes_facility","source_name":"Maine DEP Sea Level Rise Study","source_url":"https://gis.maine.gov/mapservices/rest/services/dep/MaineDEPSeaLevelRiseStudy/MapServer/12","feature_count":54,"feature_cap":250},"features":[{"type":"Feature","id":1,"geometry":{"type":"Point","coordinates":[-68.08744927694849,44.39489158036974]},"properties":{"OBJECTID":1,"SITE_NAME":"WINTER HARBOR WWTF","COMPANY_NAME":"WINTER HARBOR UTILITIES DISTRICT","ADDRESS_1":"39 MEADOW LN","CITY":"WINTER HARBOR","NEPDES_LICENSE_ID":"ME0100731","MAINE_LICENSE_ID":"W-000562","Notes":null,"SITE_TYPE":"Wastewater Treatment Facility"}},{"type":"Feature","id":2,"geometry":{"type":"Point","coordinates":[-68.91347119494894,44.26002919042937]},"properties":{"OBJECTID":2,"SITE_NAME":"DARK HARBOR WWTF","COMPANY_NAME":"ISLESBORO TOWN OF","ADDRESS_1":"524 PENDLETON POINT RD","CITY":"ISLESBORO","NEPDES_LICENSE_ID":"ME0100269","MAINE_LICENSE_ID":"W-002726","Notes":null,"SITE_TYPE":"Wastewater Treatment Facility"}},{"type":"Feature","id":3,"geometry":{"type":"Point","coordinates":[-70.34876159893544,43.44733507361748]},"properties":{"OBJECTID":3,"SITE_NAME":"BIDDEFORD POOL  WWTF","COMPANY_NAME":"BIDDEFORD CITY OF","ADDRESS_1":"12 STONECLIFF RD","CITY":"BIDDEFORD","NEPDES_LICENSE_ID":"ME0102741","MAINE_LICENSE_ID":"W-007581","Notes":null,"SITE_TYPE":"Wastewater Treatment Facility"}},{"type":"Feature","id":4,"geometry":{"type":"Point","coordinates":[-69.81525323659761,43.91000164648557]},"properties":{"OBJECTID":4,"SITE_NAME":"BATH IRON WORKS","COMPANY_NAME":"BATH IRON WORKS CORPORATION","ADDRESS_1":"700 WASHINGTON ST","CITY":"BATH","NEPDES_LICENSE_ID":"ME0001732","MAINE_LICENSE_ID":"W-000671","Notes":null,"SITE_TYPE":"Industrial Facility"}},{"type":"Feature","id":5,"geometry":{"type":"Point","coordinates":[-67.59874347915444,44.52959233374155]},"properties":{"OBJECTID":5,"SITE_NAME":"MOOSABEC MUSSELS INC","COMPANY_NAME":"MOOSABEC MUSSELS, INC.","ADDRESS_1":"OLD HOUSE POINT RD","CITY":"JONESPORT","NEPDES_LICENSE_ID":"ME0110248","MAINE_LICENSE_ID":"W-008152","Notes":null,"SITE_TYPE":"Seafood Business"}},{"type":"Feature","id":6,"geometry":{"type":"Point","coordinates":[-68.58571880422897,44.411866157572476]},"properties":{"OBJECTID":6,"SITE_NAME":"BLUE HILL WWTF","COMPANY_NAME":"BLUE HILL TOWN OF","ADDRESS_1":"WATER ST","CITY":"BLUE HILL","NEPDES_LICENSE_ID":"ME0101231","MAINE_LICENSE_ID":"W-002628","Notes":null,"SITE_TYPE":"Wastewater Treatment Facility"}},{"type":"Feature","id":7,"geometry":{"type":"Point","coordinates":[-68.9099649446627,44.45572349457312]},"properties":{"OBJECTID":7,"SITE_NAME":"SEARSPORT WWTF","COMPANY_NAME":"SEARSPORT TOWN OF","ADDRESS_1":"45 NAVY ST","CITY":"SEARSPORT","NEPDES_LICENSE_ID":"ME0101966","MAINE_LICENSE_ID":"W-006279","Notes":null,"SITE_TYPE":"Wastewater Treatment Facility"}},{"type":"Feature","id":8,"geometry":{"type":"Point","coordinates":[-67.27164238529032,45.188709811647364]},"properties":{"OBJECTID":8,"SITE_NAME":"CALAIS WWTF","COMPANY_NAME":"CALAIS CITY OF","ADDRESS_1":"ELM ST","CITY":"CALAIS","NEPDES_LICENSE_ID":"ME0100129","MAINE_LICENSE_ID":"W-002751","Notes":null,"SITE_TYPE":"Wastewater Treatment Facility"}},{"type":"Feature","id":9,"geometry":{"type":"Point","coordinates":[-69.6589232216289,43.78615538932851]},"properties":{"OBJECTID":9,"SITE_NAME":"NEWAGEN SEASIDE INN","COMPANY_NAME":"NEWAGEN SEASIDE INN INCORPORATED","ADDRESS_1":"RTE 27","CITY":"SOUTHPORT","NEPDES_LICENSE_ID":"ME0021229","MAINE_LICENSE_ID":"W-001689","Notes":null,"SITE_TYPE":"Other"}},{"type":"Feature","id":10,"geometry":{"type":"Point","coordinates":[-70.25440146024509,43.67395281056499]},"properties":{"OBJECTID":10,"SITE_NAME":"EAST END WWTF","COMPANY_NAME":"PORTLAND WATER DISTRICT","ADDRESS_1":"500 MARGINAL WAY","CITY":"PORTLAND","NEPDES_LICENSE_ID":"ME0102075","MAINE_LICENSE_ID":"W-002671","Notes":null,"SITE_TYPE":"Wastewater Treatment Facility"}},{"type":"Feature","id":11,"geometry":{"type":"Point","coordinates":[-70.25651164601257,43.64949508613107]},"properties":{"OBJECTID":11,"SITE_NAME":"FRESH ATLANTIC USA","COMPANY_NAME":"FRESH ATLANTIC USA, INC.","ADDRESS_1":"72 COMMERCIAL ST","CITY":"PORTLAND","NEPDES_LICENSE_ID":"ME0036943","MAINE_LICENSE_ID":"W-009008","Notes":"On Pier","SITE_TYPE":"Seafood Business"}},{"type":"Feature","id":12,"geometry":{"type":"Point","coordinates":[-70.25700892945004,43.63780931870801]},"properties":{"OBJECTID":12,"SITE_NAME":"SOUTH PORTLAND WWTF","COMPANY_NAME":"SOUTH PORTLAND CITY OF","ADDRESS_1":"111 WATERMAN DR","CITY":"SOUTH PORTLAND","NEPDES_LICENSE_ID":"ME0100633","MAINE_LICENSE_ID":"W-001370","Notes":null,"SITE_TYPE":"Wastewater Treatment Facility"}},{"type":"Feature","id":13,"geometry":{"type":"Point","coordinates":[-70.80855688111889,43.225414066424044]},"properties":{"OBJECTID":13,"SITE_NAME":"SOUTH BERWICK SD WWTF","COMPANY_NAME":"SOUTH BERWICK SEWER DISTRICT","ADDRESS_1":"LIBERTY ST","CITY":"SOUTH BERWICK","NEPDES_LICENSE_ID":"ME0100820","MAINE_LICENSE_ID":"W-002721","Notes":null,"SITE_TYPE":"Wastewater Treatment Facility"}},{"type":"Feature","id":14,"geometry":{"type":"Point","coordinates":[-68.78308027544341,44.77963519078765]},"properties":{"OBJECTID":14,"SITE_NAME":"BANGOR WWTF","COMPANY_NAME":"BANGOR CITY OF","ADDRESS_1":"760 MAIN ST","CITY":"BANGOR","NEPDES_LICENSE_ID":"ME0100781","MAINE_LICENSE_ID":"W-001041","Notes":null,"SITE_TYPE":"Wastewater Treatment Facility"}},{"type":"Feature","id":15,"geometry":{"type":"Point","coordinates":[-69.63229046400366,43.851060985476835]},"properties":{"OBJECTID":15,"SITE_NAME":"BOOTHBAY HARBOR WWTF","COMPANY_NAME":"BOOTHBAY HARBOR SEWER DISTRICT","ADDRESS_1":"27 SEA ST","CITY":"BOOTHBAY HARBOR","NEPDES_LICENSE_ID":"ME0100064","MAINE_LICENSE_ID":"W-002750","Notes":null,"SITE_TYPE":"Wastewater Treatment Facility"}},{"type":"Feature","id":16,"geometry":{"type":"Point","coordinates":[-67.45371629392561,44.72003057639923]},"properties":{"OBJECTID":16,"SITE_NAME":"MACHIAS WWTF","COMPANY_NAME":"MACHIAS TOWN OF","ADDRESS_1":"LOWER MAIN ST","CITY":"MACHIAS","NEPDES_LICENSE_ID":"ME0100323","MAINE_LICENSE_ID":"W-002674","Notes":null,"SITE_TYPE":"Wastewater Treatment Facility"}},{"type":"Feature","id":17,"geometry":{"type":"Point","coordinates":[-70.44046486988651,43.49430786531912]},"properties":{"OBJECTID":17,"SITE_NAME":"SACO WWTF","COMPANY_NAME":"SACO WASTEWATER TREATMENT FACILITY","ADDRESS_1":"68 FRONT ST","CITY":"SACO","NEPDES_LICENSE_ID":"ME0101117","MAINE_LICENSE_ID":"W-002599","Notes":null,"SITE_TYPE":"Wastewater Treatment Facility"}},{"type":"Feature","id":18,"geometry":{"type":"Point","coordinates":[-68.781937435388,44.774321668556375]},"properties":{"OBJECTID":18,"SITE_NAME":"BREWER WWTF","COMPANY_NAME":"BREWER CITY OF","ADDRESS_1":"37 OAK ST","CITY":"BREWER","NEPDES_LICENSE_ID":"ME0100072","MAINE_LICENSE_ID":"W-002679","Notes":null,"SITE_TYPE":"Wastewater Treatment Facility"}},{"type":"Feature","id":19,"geometry":{"type":"Point","coordinates":[-70.25559364094467,43.650214334407764]},"properties":{"OBJECTID":19,"SITE_NAME":"ISF TRADING COMPANY","COMPANY_NAME":"ISF TRADING COMPANY","ADDRESS_1":"390 COMMERCIAL ST","CITY":"PORTLAND","NEPDES_LICENSE_ID":"ME0023957","MAINE_LICENSE_ID":"W-007808","Notes":"On Pier","SITE_TYPE":"Seafood Business"}},{"type":"Feature","id":20,"geometry":{"type":"Point","coordinates":[-68.96739878882092,44.38077859397215]},"properties":{"OBJECTID":20,"SITE_NAME":"NORTHPORT VILLAGE CORP.","COMPANY_NAME":"NORTHPORT VILLAGE CORPORATION","ADDRESS_1":"LOWER MAIN ST","CITY":"NORTHPORT","NEPDES_LICENSE_ID":"ME0100901","MAINE_LICENSE_ID":"W-002575","Notes":null,"SITE_TYPE":"Wastewater Treatment Facility"}},{"type":"Feature","id":21,"geometry":{"type":"Point","coordinates":[-68.32402060626967,44.27513172360195]},"properties":{"OBJECTID":21,"SITE_NAME":"SOUTHWEST HARBOR WWTF","COMPANY_NAME":"SOUTHWEST HARBOR WATER & SEWER DISTRICT","ADDRESS_1":"9 APPLE LN","CITY":"SOUTHWEST HARBOR","NEPDES_LICENSE_ID":"ME0100641","MAINE_LICENSE_ID":"W-002676","Notes":null,"SITE_TYPE":"Wastewater Treatment Facility"}},{"type":"Feature","id":22,"geometry":{"type":"Point","coordinates":[-70.28677064970992,43.638532531569574]},"properties":{"OBJECTID":22,"SITE_NAME":"CLEAN HARBORS ENV SERVICES INC","COMPANY_NAME":"CLEAN HARBORS ENV SERV INC","ADDRESS_1":"17 MAIN ST","CITY":"SOUTH PORTLAND","NEPDES_LICENSE_ID":"ME0021571","MAINE_LICENSE_ID":"W-000647","Notes":null,"SITE_TYPE":"Industrial Facility"}},{"type":"Feature","id":23,"geometry":{"type":"Point","coordinates":[-69.00753180388557,44.28068777517487]},"properties":{"OBJECTID":23,"SITE_NAME":"LINCOLNVILLE BEACH SANITARY FACILITY","COMPANY_NAME":"LINCOLNVILLE BEACH SANITARY","ADDRESS_1":"US ROUTE #1","CITY":"LINCOLNVILLE","NEPDES_LICENSE_ID":"ME0102857","MAINE_LICENSE_ID":"W-007496","Notes":null,"SITE_TYPE":"Wastewater Treatment Facility"}},{"type":"Feature","id":24,"geometry":{"type":"Point","coordinates":[-69.06962310081151,44.067473468299596]},"properties":{"OBJECTID":24,"SITE_NAME":"CRESCENT BEACH ASSOCIATION","COMPANY_NAME":"CRESCENT BEACH ASSOCIATION","ADDRESS_1":"BELLEVUE ST","CITY":"OWLS HEAD","NEPDES_LICENSE_ID":"ME0036781","MAINE_LICENSE_ID":"W-004110","Notes":null,"SITE_TYPE":"Other"}},{"type":"Feature","id":25,"geometry":{"type":"Point","coordinates":[-70.44729354243955,43.49178149140954]},"properties":{"OBJECTID":25,"SITE_NAME":"BIDDEFORD WWTF","COMPANY_NAME":"BIDDEFORD CITY OF","ADDRESS_1":"63 WATER ST","CITY":"BIDDEFORD","NEPDES_LICENSE_ID":"ME0100048","MAINE_LICENSE_ID":"W-000683","Notes":null,"SITE_TYPE":"Wastewater Treatment Facility"}},{"type":"Feature","id":26,"geometry":{"type":"Point","coordinates":[-70.53856236641222,43.3804679524528]},"properties":{"OBJECTID":26,"SITE_NAME":"KENNEBUNK WWTF","COMPANY_NAME":"KENNEBUNK SEWER DISTRICT","ADDRESS_1":"71 WATER ST","CITY":"KENNEBUNK","NEPDES_LICENSE_ID":"ME0100935","MAINE_LICENSE_ID":"W-002585","Notes":null,"SITE_TYPE":"Wastewater Treatment Facility"}},{"type":"Feature","id":27,"geometry":{"type":"Point","coordinates":[-69.00702303990947,44.428030099833876]},"properties":{"OBJECTID":27,"SITE_NAME":"BELFAST WWTF","COMPANY_NAME":"BELFAST CITY OF","ADDRESS_1":"54 FRONT ST","CITY":"BELFAST","NEPDES_LICENSE_ID":"ME0101532","MAINE_LICENSE_ID":"W-000569","Notes":null,"SITE_TYPE":"Wastewater Treatment Facility"}},{"type":"Feature","id":28,"geometry":{"type":"Point","coordinates":[-69.60247316368557,43.85902829428542]},"properties":{"OBJECTID":28,"SITE_NAME":"BAYVILLE VILLAGE CORPORATION","COMPANY_NAME":"BAYVILLE VILLAGE CORPORATION","ADDRESS_1":"12 ROBERTS CIR","CITY":"BOOTHBAY HARBOR","NEPDES_LICENSE_ID":"ME0101664","MAINE_LICENSE_ID":"W-002573","Notes":null,"SITE_TYPE":"Wastewater Treatment Facility"}},{"type":"Feature","id":29,"geometry":{"type":"Point","coordinates":[-70.38864124392502,43.45939178107565]},"properties":{"OBJECTID":29,"SITE_NAME":"UNIVERSITY OF NEW ENGLAND","COMPANY_NAME":"UNIVERSITY OF NEW ENGLAND","ADDRESS_1":"11 HILLS BEACH RD","CITY":"BIDDEFORD","NEPDES_LICENSE_ID":"ME0023302","MAINE_LICENSE_ID":"W-001319","Notes":null,"SITE_TYPE":"Other"}},{"type":"Feature","id":30,"geometry":{"type":"Point","coordinates":[-69.10534753811298,44.10664351007395]},"properties":{"OBJECTID":30,"SITE_NAME":"DUPONT NUTRITION","COMPANY_NAME":"DUPONT NUTRITION USA, INC.","ADDRESS_1":"1 CROCKETT'S POINT","CITY":"ROCKLAND","NEPDES_LICENSE_ID":"ME0000400","MAINE_LICENSE_ID":"W-001999","Notes":null,"SITE_TYPE":"Industrial Facility"}},{"type":"Feature","id":31,"geometry":{"type":"Point","coordinates":[-70.28558760896814,43.63733838173259]},"properties":{"OBJECTID":31,"SITE_NAME":"SPRAGUE ENERGY SOUTH PORTLAND","COMPANY_NAME":"SPRAGUE OPERATING RESOURCES LLC","ADDRESS_1":"59 MAIN ST","CITY":"SOUTH PORTLAND","NEPDES_LICENSE_ID":"ME0001821","MAINE_LICENSE_ID":"W-000886","Notes":null,"SITE_TYPE":"Marine Oil Terminal"}},{"type":"Feature","id":32,"geometry":{"type":"Point","coordinates":[-70.23979671092614,43.65145825076974]},"properties":{"OBJECTID":32,"SITE_NAME":"GULF OIL LIMITED PARTNERSHIP","COMPANY_NAME":"GULF OIL LIMITED PARTNERSHIP","ADDRESS_1":"175 FRONT ST","CITY":"SOUTH PORTLAND","NEPDES_LICENSE_ID":"ME0022314","MAINE_LICENSE_ID":"W-000737","Notes":null,"SITE_TYPE":"Marine Oil Terminal"}},{"type":"Feature","id":33,"geometry":{"type":"Point","coordinates":[-70.26579378837948,43.63520926224366]},"properties":{"OBJECTID":33,"SITE_NAME":"CITGO PETROLEUM","COMPANY_NAME":"CITGO PETROLEUM CORPORATION","ADDRESS_1":"102 MECHANIC ST","CITY":"SOUTH PORTLAND","NEPDES_LICENSE_ID":"ME0002291","MAINE_LICENSE_ID":"W-000637","Notes":null,"SITE_TYPE":"Marine Oil Terminal"}},{"type":"Feature","id":34,"geometry":{"type":"Point","coordinates":[-70.6103896804591,43.17555545172743]},"properties":{"OBJECTID":34,"SITE_NAME":"THE GOLDENROD","COMPANY_NAME":"THE GOLDENROD","ADDRESS_1":"TWO RAILROAD AVE","CITY":"YORK","NEPDES_LICENSE_ID":"ME0036749","MAINE_LICENSE_ID":"W-002862","Notes":null,"SITE_TYPE":"Other"}},{"type":"Feature","id":35,"geometry":{"type":"Point","coordinates":[-68.86896551732957,44.12777476112421]},"properties":{"OBJECTID":35,"SITE_NAME":"NORTH HAVEN WWTF","COMPANY_NAME":"NORTH HAVEN TOWN OF","ADDRESS_1":"9 WATERMAN LN","CITY":"NORTH HAVEN","NEPDES_LICENSE_ID":"ME0101907","MAINE_LICENSE_ID":"W-001671","Notes":null,"SITE_TYPE":"Wastewater Treatment Facility"}},{"type":"Feature","id":36,"geometry":{"type":"Point","coordinates":[-66.98274595555388,44.855059679833126]},"properties":{"OBJECTID":36,"SITE_NAME":"LUBEC WWTF","COMPANY_NAME":"LUBEC TOWN OF","ADDRESS_1":"PLEASANT ST","CITY":"LUBEC","NEPDES_LICENSE_ID":"ME0102016","MAINE_LICENSE_ID":"W-006306","Notes":null,"SITE_TYPE":"Wastewater Treatment Facility"}},{"type":"Feature","id":37,"geometry":{"type":"Point","coordinates":[-69.66149322133026,44.005235416888596]},"properties":{"OBJECTID":37,"SITE_NAME":"WISCASSET WWTF","COMPANY_NAME":"WISCASSET TOWN OF","ADDRESS_1":"69 WATER ST","CITY":"WISCASSET","NEPDES_LICENSE_ID":"ME0100757","MAINE_LICENSE_ID":"W-000370","Notes":null,"SITE_TYPE":"Wastewater Treatment Facility"}},{"type":"Feature","id":38,"geometry":{"type":"Point","coordinates":[-70.28264450988186,43.636525074105755]},"properties":{"OBJECTID":38,"SITE_NAME":"SOUTH PORTLAND TERMINAL LLC","COMPANY_NAME":"SOUTH PORTLAND TERMINAL LLC","ADDRESS_1":"170 LINCOLN ST","CITY":"SOUTH PORTLAND","NEPDES_LICENSE_ID":"ME0000485","MAINE_LICENSE_ID":"W-002653","Notes":null,"SITE_TYPE":"Marine Oil Terminal"}},{"type":"Feature","id":39,"geometry":{"type":"Point","coordinates":[-70.27492539796324,43.634387453815144]},"properties":{"OBJECTID":39,"SITE_NAME":"GLOBAL COMPANIES, LLC","COMPANY_NAME":"GLOBAL COMPANIES LLC","ADDRESS_1":"1 CLARK RD","CITY":"SOUTH PORTLAND","NEPDES_LICENSE_ID":"ME0001775","MAINE_LICENSE_ID":"W-002565","Notes":null,"SITE_TYPE":"Marine Oil Terminal"}},{"type":"Feature","id":40,"geometry":{"type":"Point","coordinates":[-68.02066487483079,44.39847077025191]},"properties":{"OBJECTID":40,"SITE_NAME":"MAINE FAIR TRADE LOBSTER LLC","COMPANY_NAME":"MAINE FAIR TRADE LOBSTER LLC","ADDRESS_1":"200 MAIN ST","CITY":"PROSPECT HARBOR","NEPDES_LICENSE_ID":"ME0000710","MAINE_LICENSE_ID":"W-000791","Notes":null,"SITE_TYPE":"Seafood Business"}},{"type":"Feature","id":41,"geometry":{"type":"Point","coordinates":[-70.588853231902,43.2654156149807]},"properties":{"OBJECTID":41,"SITE_NAME":"OGUNQUIT SEWER DISTRICT WWTF","COMPANY_NAME":"OGUNQUIT SEWER DISTRICT","ADDRESS_1":"80 MARSHVIEW LN","CITY":"OGUNQUIT","NEPDES_LICENSE_ID":"ME0100986","MAINE_LICENSE_ID":"W-000449","Notes":null,"SITE_TYPE":"Wastewater Treatment Facility"}},{"type":"Feature","id":42,"geometry":{"type":"Point","coordinates":[-68.42966840001066,44.543966071855486]},"properties":{"OBJECTID":42,"SITE_NAME":"ELLSWORTH HYDRO PROJECT","COMPANY_NAME":"BLACK BEAR HYDRO PARTNERS, LLC","ADDRESS_1":"GRANT ST","CITY":"ELLSWORTH","NEPDES_LICENSE_ID":"ME0036641","MAINE_LICENSE_ID":"W-008065","Notes":null,"SITE_TYPE":"Other"}},{"type":"Feature","id":43,"geometry":{"type":"Point","coordinates":[-70.60606808617455,43.182477701153196]},"properties":{"OBJECTID":43,"SITE_NAME":"YORK WWTF","COMPANY_NAME":"YORK SEWER DISTRICT","ADDRESS_1":"21 BAY HAVEN RD","CITY":"YORK","NEPDES_LICENSE_ID":"ME0101222","MAINE_LICENSE_ID":"W-002687","Notes":null,"SITE_TYPE":"Wastewater Treatment Facility"}},{"type":"Feature","id":44,"geometry":{"type":"Point","coordinates":[-69.81456626888506,43.90604100090698]},"properties":{"OBJECTID":44,"SITE_NAME":"BATH IRON WORKS CORP","COMPANY_NAME":"GENERAL DYNAMICS CORPORATION","ADDRESS_1":"700 WASHINGTON ST","CITY":"BATH","NEPDES_LICENSE_ID":"MEG220002","MAINE_LICENSE_ID":null,"Notes":null,"SITE_TYPE":"Industrial Facility"}},{"type":"Feature","id":45,"geometry":{"type":"Point","coordinates":[-69.06396550386252,44.21013223508828]},"properties":{"OBJECTID":45,"SITE_NAME":"CAMDEN WASTE SNOW DISCHARGE","COMPANY_NAME":"CAMDEN TOWN OF","ADDRESS_1":"CAMDEN HBR","CITY":"CAMDEN","NEPDES_LICENSE_ID":"MEG210005","MAINE_LICENSE_ID":"W-009140","Notes":null,"SITE_TYPE":"Snow Dump/Discharge Sites"}},{"type":"Feature","id":46,"geometry":{"type":"Point","coordinates":[-69.76406727070791,44.22803906091289]},"properties":{"OBJECTID":46,"SITE_NAME":"RANDOLPH COMBINED SEWER OVERFLOW SYSTEM","COMPANY_NAME":"RANDOLPH TOWN OF","ADDRESS_1":"WATER ST","CITY":"RANDOLPH","NEPDES_LICENSE_ID":"ME0102423","MAINE_LICENSE_ID":"W-008074","Notes":null,"SITE_TYPE":"Wastewater Treatment Facility"}},{"type":"Feature","id":47,"geometry":{"type":"Point","coordinates":[-69.66487748700509,43.9992503437793]},"properties":{"OBJECTID":47,"SITE_NAME":"WISCASSET WASTE SNOW DISCHARGE","COMPANY_NAME":"WISCASSET TOWN OF","ADDRESS_1":"MEMORIAL PIER","CITY":"WISCASSET","NEPDES_LICENSE_ID":"MEG210001","MAINE_LICENSE_ID":"W-009111","Notes":"On Pier","SITE_TYPE":"Snow Dump/Discharge Sites"}},{"type":"Feature","id":48,"geometry":{"type":"Point","coordinates":[-68.79683621032716,44.3871423319435]},"properties":{"OBJECTID":48,"SITE_NAME":"MAINE MARITIME ACADEMY","COMPANY_NAME":"MAINE MARITIME ACADEMY","ADDRESS_1":"ANDREWS HALL","CITY":"CASTINE","NEPDES_LICENSE_ID":"ME0002739","MAINE_LICENSE_ID":"W-009148","Notes":null,"SITE_TYPE":"Industrial Facility"}},{"type":"Feature","id":49,"geometry":{"type":"Point","coordinates":[-69.19689382633933,43.987875153843184]},"properties":{"OBJECTID":49,"SITE_NAME":"SEA HAG SEAFOOD INC","COMPANY_NAME":"SEA HAG SEAFOOD, INC.","ADDRESS_1":"56 MUSSEL RD","CITY":"ST GEORGE","NEPDES_LICENSE_ID":"ME0037346","MAINE_LICENSE_ID":"W-009091","Notes":null,"SITE_TYPE":"Seafood Business"}},{"type":"Feature","id":50,"geometry":{"type":"Point","coordinates":[-67.39147486073611,44.73534736810453]},"properties":{"OBJECTID":50,"SITE_NAME":"EAST MACHIAS AQUATIC RESEARCH CENTER","COMPANY_NAME":"THE DOWNEAST SALMON FEDERATION INCORPORATED","ADDRESS_1":"13 WILLOW ST","CITY":"EAST MACHIAS","NEPDES_LICENSE_ID":"ME0110523","MAINE_LICENSE_ID":"W-009088","Notes":null,"SITE_TYPE":"Other"}},{"type":"Feature","id":51,"geometry":{"type":"Point","coordinates":[-69.5844639746862,43.86622897550442]},"properties":{"OBJECTID":51,"SITE_NAME":"DECKSZ LLC","COMPANY_NAME":"DECKSZ, LLC","ADDRESS_1":"216 OCEAN POINT RD","CITY":"EAST BOOTHBAY","NEPDES_LICENSE_ID":"ME0037133","MAINE_LICENSE_ID":"W-002364","Notes":null,"SITE_TYPE":"Industrial Facility"}},{"type":"Feature","id":52,"geometry":{"type":"Point","coordinates":[-69.10092265738426,44.096460677390866]},"properties":{"OBJECTID":52,"SITE_NAME":"DRAGON PRODUCTS COMPANY LLC","COMPANY_NAME":"DRAGON PRODUCTS COMPANY, LLC","ADDRESS_1":"44 ATLANTIC ST","CITY":"ROCKLAND","NEPDES_LICENSE_ID":"ME0036994","MAINE_LICENSE_ID":"W-009025","Notes":"On Pier","SITE_TYPE":"Industrial Facility"}},{"type":"Feature","id":53,"geometry":{"type":"Point","coordinates":[-69.07392328859798,44.18575012773479]},"properties":{"OBJECTID":53,"SITE_NAME":"SNOW DUMP","COMPANY_NAME":"ROCKPORT TOWN OF","ADDRESS_1":"PO BOX 10","CITY":"ROCKPORT","NEPDES_LICENSE_ID":"MEG210010","MAINE_LICENSE_ID":"W-009156","Notes":null,"SITE_TYPE":"Snow Dump/Discharge Sites"}},{"type":"Feature","id":54,"geometry":{"type":"Point","coordinates":[-67.39393069181554,44.73470269676977]},"properties":{"OBJECTID":54,"SITE_NAME":"EAST MACHIAS WWTF","COMPANY_NAME":"EAST MACHIAS TOWN OF","ADDRESS_1":"RTE 1","CITY":"EAST MACHIAS","NEPDES_LICENSE_ID":"ME0102156","MAINE_LICENSE_ID":"W-006521","Notes":null,"SITE_TYPE":"Wastewater Treatment Facility"}}]}