{"type":"FeatureCollection","metadata":{"source_key":"dep_3_9ft_slr_fuel_storage_tank","source_name":"Maine DEP Sea Level Rise Study","source_url":"https://gis.maine.gov/mapservices/rest/services/dep/MaineDEPSeaLevelRiseStudy/MapServer/6","feature_count":102,"feature_cap":250},"features":[{"type":"Feature","id":1,"geometry":{"type":"Point","coordinates":[-68.31293306791684,44.275035720567736]},"properties":{"OBJECTID":1,"REGISTRATION_NUMBER":6629,"TANK_NUMBER":6,"FACILITY_NAME":"US COAST GUARD BASE","FACILITY_STREET_ADDRESS":"184 CLARK POINT ROAD","FACILITY_LOCATION_TOWN":"SOUTHWEST HARBOR","TANK_MATERIAL":"STEEL_SECONDARY_CONTAINMENT","TANK_ABOVE_BELOW":"A","TANK_STATUS":"PLANNED","TANK_VOLUME":500,"Notes":"On Pier"}},{"type":"Feature","id":2,"geometry":{"type":"Point","coordinates":[-68.31293306791684,44.275035720567736]},"properties":{"OBJECTID":2,"REGISTRATION_NUMBER":6629,"TANK_NUMBER":5,"FACILITY_NAME":"US COAST GUARD BASE","FACILITY_STREET_ADDRESS":"184 CLARK POINT ROAD","FACILITY_LOCATION_TOWN":"SOUTHWEST HARBOR","TANK_MATERIAL":"STEEL_SECONDARY_CONTAINMENT","TANK_ABOVE_BELOW":"A","TANK_STATUS":"PLANNED","TANK_VOLUME":2000,"Notes":"On Pier"}},{"type":"Feature","id":3,"geometry":{"type":"Point","coordinates":[-69.0721571250579,44.18655576371408]},"properties":{"OBJECTID":3,"REGISTRATION_NUMBER":14202,"TANK_NUMBER":5,"FACILITY_NAME":"ROCKPORT MARINE INC","FACILITY_STREET_ADDRESS":"MAIN ST","FACILITY_LOCATION_TOWN":"ROCKPORT","TANK_MATERIAL":"JACKETED_TANK_DBL_WALLED","TANK_ABOVE_BELOW":"B","TANK_STATUS":"ACTIVE","TANK_VOLUME":3000,"Notes":null}},{"type":"Feature","id":4,"geometry":{"type":"Point","coordinates":[-70.26502723964073,43.66037268965721]},"properties":{"OBJECTID":4,"REGISTRATION_NUMBER":14429,"TANK_NUMBER":8,"FACILITY_NAME":"US POSTAL VEHICLE MAINT","FACILITY_STREET_ADDRESS":"171 KENNEBEC ST","FACILITY_LOCATION_TOWN":"PORTLAND","TANK_MATERIAL":"JACKETED_TANK_DBL_WALLED","TANK_ABOVE_BELOW":"B","TANK_STATUS":"ACTIVE","TANK_VOLUME":5000,"Notes":null}},{"type":"Feature","id":5,"geometry":{"type":"Point","coordinates":[-70.64673500813694,43.129818285589664]},"properties":{"OBJECTID":5,"REGISTRATION_NUMBER":4923,"TANK_NUMBER":5,"FACILITY_NAME":"YORK HARBOR MARINE SVC","FACILITY_STREET_ADDRESS":"20 HARRIS ISLAND RD","FACILITY_LOCATION_TOWN":"YORK","TANK_MATERIAL":"JACKETED_TANK_DBL_WALLED","TANK_ABOVE_BELOW":"B","TANK_STATUS":"ACTIVE","TANK_VOLUME":6000,"Notes":null}},{"type":"Feature","id":6,"geometry":{"type":"Point","coordinates":[-68.76992129182086,44.799456196319404]},"properties":{"OBJECTID":6,"REGISTRATION_NUMBER":15081,"TANK_NUMBER":1,"FACILITY_NAME":"PLAZA PARKING STRUCTURE","FACILITY_STREET_ADDRESS":"BROAD & WATER STS","FACILITY_LOCATION_TOWN":"BANGOR","TANK_MATERIAL":"F_GLASS_SEC_CONT_PETRO_ALCOHOL","TANK_ABOVE_BELOW":"B","TANK_STATUS":"ACTIVE","TANK_VOLUME":10000,"Notes":null}},{"type":"Feature","id":7,"geometry":{"type":"Point","coordinates":[-68.70085142765734,44.16224041635608]},"properties":{"OBJECTID":7,"REGISTRATION_NUMBER":6113,"TANK_NUMBER":4,"FACILITY_NAME":"FIFIELD LOBSTER COMPANY","FACILITY_STREET_ADDRESS":"BURNT COVE ROAD","FACILITY_LOCATION_TOWN":"STONINGTON","TANK_MATERIAL":"STEEL_ASPHALT_COATED","TANK_ABOVE_BELOW":"A","TANK_STATUS":"ACTIVE","TANK_VOLUME":1000,"Notes":null}},{"type":"Feature","id":8,"geometry":{"type":"Point","coordinates":[-68.70085142765734,44.16224041635608]},"properties":{"OBJECTID":8,"REGISTRATION_NUMBER":6113,"TANK_NUMBER":3,"FACILITY_NAME":"FIFIELD LOBSTER COMPANY","FACILITY_STREET_ADDRESS":"BURNT COVE ROAD","FACILITY_LOCATION_TOWN":"STONINGTON","TANK_MATERIAL":"STEEL_ASPHALT_COATED","TANK_ABOVE_BELOW":"A","TANK_STATUS":"ACTIVE","TANK_VOLUME":1000,"Notes":null}},{"type":"Feature","id":9,"geometry":{"type":"Point","coordinates":[-70.25295691961941,43.65093501742007]},"properties":{"OBJECTID":9,"REGISTRATION_NUMBER":2914,"TANK_NUMBER":2,"FACILITY_NAME":"VESSEL SVCS INC","FACILITY_STREET_ADDRESS":"ONE PORTLAND FISH PIER","FACILITY_LOCATION_TOWN":"PORTLAND","TANK_MATERIAL":"STEEL_ASPHALT_COATED","TANK_ABOVE_BELOW":"A","TANK_STATUS":"ACTIVE","TANK_VOLUME":1000,"Notes":"On Pier"}},{"type":"Feature","id":10,"geometry":{"type":"Point","coordinates":[-69.81339423009005,43.91555125173792]},"properties":{"OBJECTID":10,"REGISTRATION_NUMBER":12601,"TANK_NUMBER":3,"FACILITY_NAME":"KENNEBEC TAVERN & MARINA","FACILITY_STREET_ADDRESS":"119 COMMERCIAL ST","FACILITY_LOCATION_TOWN":"BATH","TANK_MATERIAL":"JACKETED_TANK_DBL_WALLED","TANK_ABOVE_BELOW":"B","TANK_STATUS":"ACTIVE","TANK_VOLUME":6000,"Notes":null}},{"type":"Feature","id":11,"geometry":{"type":"Point","coordinates":[-70.4317277300233,43.365860390089715]},"properties":{"OBJECTID":11,"REGISTRATION_NUMBER":3361,"TANK_NUMBER":4,"FACILITY_NAME":"CAPE PORPOISE PIER","FACILITY_STREET_ADDRESS":"81 PIER RD","FACILITY_LOCATION_TOWN":"KENNEBUNKPORT","TANK_MATERIAL":"JACKETED_TANK_DBL_WALLED","TANK_ABOVE_BELOW":"B","TANK_STATUS":"ACTIVE","TANK_VOLUME":4000,"Notes":"On Pier"}},{"type":"Feature","id":12,"geometry":{"type":"Point","coordinates":[-70.43172785552952,43.36586042633652]},"properties":{"OBJECTID":12,"REGISTRATION_NUMBER":3361,"TANK_NUMBER":3,"FACILITY_NAME":"CAPE PORPOISE PIER","FACILITY_STREET_ADDRESS":"81 PIER RD","FACILITY_LOCATION_TOWN":"KENNEBUNKPORT","TANK_MATERIAL":"JACKETED_TANK_DBL_WALLED","TANK_ABOVE_BELOW":"B","TANK_STATUS":"ACTIVE","TANK_VOLUME":2000,"Notes":"On Pier"}},{"type":"Feature","id":13,"geometry":{"type":"Point","coordinates":[-68.34785971689799,44.23796050792359]},"properties":{"OBJECTID":13,"REGISTRATION_NUMBER":12795,"TANK_NUMBER":3,"FACILITY_NAME":"CH RICH CO INC","FACILITY_STREET_ADDRESS":"SHORE RD","FACILITY_LOCATION_TOWN":"TREMONT","TANK_MATERIAL":"STEEL_ASPHALT_COATED","TANK_ABOVE_BELOW":"A","TANK_STATUS":"ACTIVE","TANK_VOLUME":2500,"Notes":"On Pier"}},{"type":"Feature","id":14,"geometry":{"type":"Point","coordinates":[-68.34785971689799,44.23796050792359]},"properties":{"OBJECTID":14,"REGISTRATION_NUMBER":12795,"TANK_NUMBER":4,"FACILITY_NAME":"CH RICH CO INC","FACILITY_STREET_ADDRESS":"SHORE RD","FACILITY_LOCATION_TOWN":"TREMONT","TANK_MATERIAL":"STEEL_ASPHALT_COATED","TANK_ABOVE_BELOW":"A","TANK_STATUS":"ACTIVE","TANK_VOLUME":3000,"Notes":"On Pier"}},{"type":"Feature","id":15,"geometry":{"type":"Point","coordinates":[-69.10128448363601,44.1043363140785]},"properties":{"OBJECTID":15,"REGISTRATION_NUMBER":3155,"TANK_NUMBER":2,"FACILITY_NAME":"US COAST GUARD STATION","FACILITY_STREET_ADDRESS":"54 TILLSON AVE","FACILITY_LOCATION_TOWN":"ROCKLAND","TANK_MATERIAL":"STEEL_ASPHALT_COATED","TANK_ABOVE_BELOW":"A","TANK_STATUS":"ACTIVE","TANK_VOLUME":300,"Notes":"On Pier"}},{"type":"Feature","id":16,"geometry":{"type":"Point","coordinates":[-70.242542985761,43.65022741816343]},"properties":{"OBJECTID":16,"REGISTRATION_NUMBER":12184,"TANK_NUMBER":3,"FACILITY_NAME":"SUNSET MARINA","FACILITY_STREET_ADDRESS":"231 FRONT STREET","FACILITY_LOCATION_TOWN":"SOUTH PORTLAND","TANK_MATERIAL":"JACKETED_TANK_DBL_WALLED","TANK_ABOVE_BELOW":"B","TANK_STATUS":"ACTIVE","TANK_VOLUME":12000,"Notes":null}},{"type":"Feature","id":17,"geometry":{"type":"Point","coordinates":[-68.67838753110829,44.14821214144555]},"properties":{"OBJECTID":17,"REGISTRATION_NUMBER":8770,"TANK_NUMBER":2,"FACILITY_NAME":"BILLINGS DIESEL & MARINE SVC","FACILITY_STREET_ADDRESS":"72 MOOSE ISLAND ROAD","FACILITY_LOCATION_TOWN":"STONINGTON","TANK_MATERIAL":"STEEL_SECONDARY_CONTAINMENT","TANK_ABOVE_BELOW":"A","TANK_STATUS":"ACTIVE","TANK_VOLUME":2000,"Notes":"On Pier"}},{"type":"Feature","id":18,"geometry":{"type":"Point","coordinates":[-70.20854389105902,43.728522137351355]},"properties":{"OBJECTID":18,"REGISTRATION_NUMBER":599,"TANK_NUMBER":6,"FACILITY_NAME":"HANDY BOAT SVC INC","FACILITY_STREET_ADDRESS":"215 FORESIDE RD","FACILITY_LOCATION_TOWN":"FALMOUTH","TANK_MATERIAL":"STEEL_ASPHALT_COATED","TANK_ABOVE_BELOW":"A","TANK_STATUS":"ACTIVE","TANK_VOLUME":5000,"Notes":"On Pier"}},{"type":"Feature","id":19,"geometry":{"type":"Point","coordinates":[-70.20854389105902,43.728522137351355]},"properties":{"OBJECTID":19,"REGISTRATION_NUMBER":599,"TANK_NUMBER":5,"FACILITY_NAME":"HANDY BOAT SVC INC","FACILITY_STREET_ADDRESS":"215 FORESIDE RD","FACILITY_LOCATION_TOWN":"FALMOUTH","TANK_MATERIAL":"STEEL_ASPHALT_COATED","TANK_ABOVE_BELOW":"A","TANK_STATUS":"ACTIVE","TANK_VOLUME":1000,"Notes":"On Pier"}},{"type":"Feature","id":20,"geometry":{"type":"Point","coordinates":[-69.10495116097455,44.10740474908979]},"properties":{"OBJECTID":20,"REGISTRATION_NUMBER":7902,"TANK_NUMBER":6,"FACILITY_NAME":"FMC CORP MARINE COLLOIDS DIV","FACILITY_STREET_ADDRESS":"CROCKETTS POINT","FACILITY_LOCATION_TOWN":"ROCKLAND","TANK_MATERIAL":"STEEL_ASPHALT_COATED","TANK_ABOVE_BELOW":"A","TANK_STATUS":"ACTIVE","TANK_VOLUME":500,"Notes":"On Pier"}},{"type":"Feature","id":21,"geometry":{"type":"Point","coordinates":[-67.61617673199073,44.528355440502935]},"properties":{"OBJECTID":21,"REGISTRATION_NUMBER":6653,"TANK_NUMBER":2,"FACILITY_NAME":"US COAST GUARD STATION","FACILITY_STREET_ADDRESS":"9 BRIDGE STREET","FACILITY_LOCATION_TOWN":"JONESPORT","TANK_MATERIAL":"STEEL_ASPHALT_COATED","TANK_ABOVE_BELOW":"A","TANK_STATUS":"ACTIVE","TANK_VOLUME":300,"Notes":null}},{"type":"Feature","id":22,"geometry":{"type":"Point","coordinates":[-67.6156834113635,44.52701083338673]},"properties":{"OBJECTID":22,"REGISTRATION_NUMBER":6653,"TANK_NUMBER":4,"FACILITY_NAME":"US COAST GUARD STATION","FACILITY_STREET_ADDRESS":"9 BRIDGE STREET","FACILITY_LOCATION_TOWN":"JONESPORT","TANK_MATERIAL":"STEEL_ASPHALT_COATED","TANK_ABOVE_BELOW":"A","TANK_STATUS":"PLANNED","TANK_VOLUME":2000,"Notes":"On Pier"}},{"type":"Feature","id":23,"geometry":{"type":"Point","coordinates":[-70.44572361241025,43.49165224794267]},"properties":{"OBJECTID":23,"REGISTRATION_NUMBER":4098,"TANK_NUMBER":4,"FACILITY_NAME":"RUMERYS BOAT YARD INC","FACILITY_STREET_ADDRESS":"109 CLEAVES ST","FACILITY_LOCATION_TOWN":"BIDDEFORD","TANK_MATERIAL":"STEEL_ASPHALT_COATED","TANK_ABOVE_BELOW":"A","TANK_STATUS":"PLANNED","TANK_VOLUME":300,"Notes":null}},{"type":"Feature","id":24,"geometry":{"type":"Point","coordinates":[-70.44572361241025,43.49165224794267]},"properties":{"OBJECTID":24,"REGISTRATION_NUMBER":4098,"TANK_NUMBER":5,"FACILITY_NAME":"RUMERYS BOAT YARD INC","FACILITY_STREET_ADDRESS":"109 CLEAVES ST","FACILITY_LOCATION_TOWN":"BIDDEFORD","TANK_MATERIAL":"STEEL_ASPHALT_COATED","TANK_ABOVE_BELOW":"A","TANK_STATUS":"PLANNED","TANK_VOLUME":300,"Notes":null}},{"type":"Feature","id":25,"geometry":{"type":"Point","coordinates":[-68.79579120924897,44.38866992014866]},"properties":{"OBJECTID":25,"REGISTRATION_NUMBER":4531,"TANK_NUMBER":2,"FACILITY_NAME":"EATONS BOAT YARD INC","FACILITY_STREET_ADDRESS":"SEA ST","FACILITY_LOCATION_TOWN":"CASTINE","TANK_MATERIAL":"JACKETED_TANK_DBL_WALLED","TANK_ABOVE_BELOW":"B","TANK_STATUS":"ACTIVE","TANK_VOLUME":6000,"Notes":null}},{"type":"Feature","id":26,"geometry":{"type":"Point","coordinates":[-69.5842110672592,43.86567766457007]},"properties":{"OBJECTID":26,"REGISTRATION_NUMBER":18616,"TANK_NUMBER":1,"FACILITY_NAME":"OCEAN POINT MARINA","FACILITY_STREET_ADDRESS":"RT 96","FACILITY_LOCATION_TOWN":"BOOTHBAY","TANK_MATERIAL":"F_GLASS_SEC_CONT_PETRO_ALCOHOL","TANK_ABOVE_BELOW":"B","TANK_STATUS":"ACTIVE","TANK_VOLUME":10000,"Notes":null}},{"type":"Feature","id":27,"geometry":{"type":"Point","coordinates":[-69.45775806277788,43.945344778997146]},"properties":{"OBJECTID":27,"REGISTRATION_NUMBER":12237,"TANK_NUMBER":3,"FACILITY_NAME":"MUSCONGUS BAY LOBSTER","FACILITY_STREET_ADDRESS":"HC61 BOX 44","FACILITY_LOCATION_TOWN":"DAMARISCOTTA","TANK_MATERIAL":"STEEL_ASPHALT_COATED","TANK_ABOVE_BELOW":"A","TANK_STATUS":"ACTIVE","TANK_VOLUME":2000,"Notes":"On Pier"}},{"type":"Feature","id":28,"geometry":{"type":"Point","coordinates":[-69.45775806277788,43.945344778997146]},"properties":{"OBJECTID":28,"REGISTRATION_NUMBER":12237,"TANK_NUMBER":4,"FACILITY_NAME":"MUSCONGUS BAY LOBSTER","FACILITY_STREET_ADDRESS":"HC61 BOX 44","FACILITY_LOCATION_TOWN":"DAMARISCOTTA","TANK_MATERIAL":"STEEL_ASPHALT_COATED","TANK_ABOVE_BELOW":"A","TANK_STATUS":"ACTIVE","TANK_VOLUME":275,"Notes":"On Pier"}},{"type":"Feature","id":29,"geometry":{"type":"Point","coordinates":[-69.10821349014203,44.10679801716172]},"properties":{"OBJECTID":29,"REGISTRATION_NUMBER":19252,"TANK_NUMBER":1,"FACILITY_NAME":"ROCKLAND FERRY TERMINAL","FACILITY_STREET_ADDRESS":"17A MAINE ST","FACILITY_LOCATION_TOWN":"ROCKLAND","TANK_MATERIAL":"F_GLASS_SEC_CONT_PETRO_ALCOHOL","TANK_ABOVE_BELOW":"B","TANK_STATUS":"ACTIVE","TANK_VOLUME":4000,"Notes":null}},{"type":"Feature","id":30,"geometry":{"type":"Point","coordinates":[-70.11092208972445,43.7293391515892]},"properties":{"OBJECTID":30,"REGISTRATION_NUMBER":11072,"TANK_NUMBER":6,"FACILITY_NAME":"CHEBEAGUE ISLAND BOAT YARD INC","FACILITY_STREET_ADDRESS":"24 NIBLIC CIRCLE","FACILITY_LOCATION_TOWN":"CHEBEAGUE ISLAND","TANK_MATERIAL":"STEEL_SECONDARY_CONTAINMENT","TANK_ABOVE_BELOW":"A","TANK_STATUS":"ACTIVE","TANK_VOLUME":1000,"Notes":null}},{"type":"Feature","id":31,"geometry":{"type":"Point","coordinates":[-70.23130131513673,43.64885338163364]},"properties":{"OBJECTID":31,"REGISTRATION_NUMBER":19982,"TANK_NUMBER":3,"FACILITY_NAME":"SPRING POINT MARINA","FACILITY_STREET_ADDRESS":"1 SPRING POINT DR","FACILITY_LOCATION_TOWN":"SOUTH PORTLAND","TANK_MATERIAL":"F_GLASS_SEC_CONT_PETRO_ALCOHOL","TANK_ABOVE_BELOW":"B","TANK_STATUS":"ACTIVE","TANK_VOLUME":10000,"Notes":null}},{"type":"Feature","id":32,"geometry":{"type":"Point","coordinates":[-68.56445416120975,44.40974449260824]},"properties":{"OBJECTID":32,"REGISTRATION_NUMBER":21108,"TANK_NUMBER":1,"FACILITY_NAME":"KOLLEGEWIDGWOK YACHT CLUB","FACILITY_STREET_ADDRESS":"44 KYC LANE","FACILITY_LOCATION_TOWN":"BLUE HILL","TANK_MATERIAL":"STEEL_ASPHALT_COATED","TANK_ABOVE_BELOW":"A","TANK_STATUS":"ACTIVE","TANK_VOLUME":4000,"Notes":null}},{"type":"Feature","id":33,"geometry":{"type":"Point","coordinates":[-69.10322521936357,44.104557538605725]},"properties":{"OBJECTID":33,"REGISTRATION_NUMBER":21128,"TANK_NUMBER":3,"FACILITY_NAME":"JORNEYS END MARINA","FACILITY_STREET_ADDRESS":"120 TILLSON AVE","FACILITY_LOCATION_TOWN":"ROCKLAND","TANK_MATERIAL":"STEEL_ASPHALT_COATED","TANK_ABOVE_BELOW":"A","TANK_STATUS":"ACTIVE","TANK_VOLUME":9000,"Notes":"On Pier"}},{"type":"Feature","id":34,"geometry":{"type":"Point","coordinates":[-69.32857530865874,43.971733893952006]},"properties":{"OBJECTID":34,"REGISTRATION_NUMBER":21206,"TANK_NUMBER":1,"FACILITY_NAME":"BRAMHALLS LOBSTER WHARF","FACILITY_STREET_ADDRESS":"277 BRADFORD POINT RD","FACILITY_LOCATION_TOWN":"FRIENDSHIP","TANK_MATERIAL":"STEEL_ASPHALT_COATED","TANK_ABOVE_BELOW":"A","TANK_STATUS":"ACTIVE","TANK_VOLUME":2500,"Notes":null}},{"type":"Feature","id":35,"geometry":{"type":"Point","coordinates":[-66.98446869882909,44.91010725438424]},"properties":{"OBJECTID":35,"REGISTRATION_NUMBER":21242,"TANK_NUMBER":1,"FACILITY_NAME":"EASTPORT LOBSTER","FACILITY_STREET_ADDRESS":"167 WATER STREET","FACILITY_LOCATION_TOWN":"EASTPORT","TANK_MATERIAL":"STEEL_ASPHALT_COATED","TANK_ABOVE_BELOW":"A","TANK_STATUS":"PLANNED","TANK_VOLUME":5000,"Notes":null}},{"type":"Feature","id":36,"geometry":{"type":"Point","coordinates":[-70.02723296383745,43.74707443189208]},"properties":{"OBJECTID":36,"REGISTRATION_NUMBER":21619,"TANK_NUMBER":1,"FACILITY_NAME":"ASH COVE LOBSTER","FACILITY_STREET_ADDRESS":"24 HASTINGS LANE","FACILITY_LOCATION_TOWN":"HARPSWELL","TANK_MATERIAL":"STEEL_SECONDARY_CONTAINMENT","TANK_ABOVE_BELOW":"A","TANK_STATUS":"ACTIVE","TANK_VOLUME":1000,"Notes":null}},{"type":"Feature","id":37,"geometry":{"type":"Point","coordinates":[-69.1028279819724,44.11225385686504]},"properties":{"OBJECTID":37,"REGISTRATION_NUMBER":21646,"TANK_NUMBER":1,"FACILITY_NAME":"JOURNEYS END MARINA","FACILITY_STREET_ADDRESS":"FRONT STREET","FACILITY_LOCATION_TOWN":"ROCKLAND","TANK_MATERIAL":"STEEL_SECONDARY_CONTAINMENT","TANK_ABOVE_BELOW":"A","TANK_STATUS":"ACTIVE","TANK_VOLUME":15000,"Notes":"On Pier"}},{"type":"Feature","id":38,"geometry":{"type":"Point","coordinates":[-69.12169393801406,43.996714668648714]},"properties":{"OBJECTID":38,"REGISTRATION_NUMBER":22050,"TANK_NUMBER":1,"FACILITY_NAME":"SPRUCE HEAD FISHERMANS COOP","FACILITY_STREET_ADDRESS":"275 ISLAND ROAD","FACILITY_LOCATION_TOWN":"SOUTH THOMASTON","TANK_MATERIAL":"STEEL_ASPHALT_COATED","TANK_ABOVE_BELOW":"A","TANK_STATUS":"PLANNED","TANK_VOLUME":300,"Notes":"On Pier"}},{"type":"Feature","id":39,"geometry":{"type":"Point","coordinates":[-69.12139224288447,43.99641202125564]},"properties":{"OBJECTID":39,"REGISTRATION_NUMBER":21996,"TANK_NUMBER":4,"FACILITY_NAME":"ATWOOD LOBSTER","FACILITY_STREET_ADDRESS":"286 ISLAND ROAD","FACILITY_LOCATION_TOWN":"SPRUCE HEAD","TANK_MATERIAL":"STEEL_ASPHALT_COATED","TANK_ABOVE_BELOW":"A","TANK_STATUS":"PLANNED","TANK_VOLUME":275,"Notes":null}},{"type":"Feature","id":40,"geometry":{"type":"Point","coordinates":[-68.69396373710643,44.290696514322306]},"properties":{"OBJECTID":40,"REGISTRATION_NUMBER":22135,"TANK_NUMBER":1,"FACILITY_NAME":"MATT COUSINS DBA LITTLE DEER ISLE LOBSTER","FACILITY_STREET_ADDRESS":"202 LITTLE DEER ISLE","FACILITY_LOCATION_TOWN":"LITTLE DEER ISLE","TANK_MATERIAL":"STEEL_ASPHALT_COATED","TANK_ABOVE_BELOW":"A","TANK_STATUS":"PLANNED","TANK_VOLUME":1000,"Notes":null}},{"type":"Feature","id":41,"geometry":{"type":"Point","coordinates":[-69.20817334106998,43.965504365957315]},"properties":{"OBJECTID":41,"REGISTRATION_NUMBER":3259,"TANK_NUMBER":6,"FACILITY_NAME":" D/B/A MILLERS WHARF LOBSTER","FACILITY_STREET_ADDRESS":"12C COMMERCIAL ST","FACILITY_LOCATION_TOWN":"TENANTS HARBOR","TANK_MATERIAL":"STEEL_SECONDARY_CONTAINMENT","TANK_ABOVE_BELOW":"A","TANK_STATUS":"ACTIVE","TANK_VOLUME":2500,"Notes":null}},{"type":"Feature","id":42,"geometry":{"type":"Point","coordinates":[-69.25912188767458,43.926357595673416]},"properties":{"OBJECTID":42,"REGISTRATION_NUMBER":7004,"TANK_NUMBER":5,"FACILITY_NAME":"PORT CLYDE GENERAL STORE","FACILITY_STREET_ADDRESS":"2 COLD STORAGE RD","FACILITY_LOCATION_TOWN":"PORT CLYDE","TANK_MATERIAL":"JACKETED_TANK_DBL_WALLED","TANK_ABOVE_BELOW":"B","TANK_STATUS":"ACTIVE","TANK_VOLUME":2300,"Notes":null}},{"type":"Feature","id":43,"geometry":{"type":"Point","coordinates":[-69.62611902898335,43.84408988915422]},"properties":{"OBJECTID":43,"REGISTRATION_NUMBER":9958,"TANK_NUMBER":3,"FACILITY_NAME":"MID COAST MARINE SERVICES INC","FACILITY_STREET_ADDRESS":"125 ATLANTIC AVE","FACILITY_LOCATION_TOWN":"BOOTHBAY HARBOR","TANK_MATERIAL":"JACKETED_TANK_DBL_WALLED","TANK_ABOVE_BELOW":"B","TANK_STATUS":"ACTIVE","TANK_VOLUME":10000,"Notes":null}},{"type":"Feature","id":44,"geometry":{"type":"Point","coordinates":[-68.42121525959085,44.53730908314516]},"properties":{"OBJECTID":44,"REGISTRATION_NUMBER":13038,"TANK_NUMBER":3,"FACILITY_NAME":"DEAD RIVER CO BULK PLANT","FACILITY_STREET_ADDRESS":"269 WATER ST","FACILITY_LOCATION_TOWN":"ELLSWORTH","TANK_MATERIAL":"STEEL_ASPHALT_COATED","TANK_ABOVE_BELOW":"A","TANK_STATUS":"ACTIVE","TANK_VOLUME":20000,"Notes":null}},{"type":"Feature","id":45,"geometry":{"type":"Point","coordinates":[-70.04092500174798,43.739794966389375]},"properties":{"OBJECTID":45,"REGISTRATION_NUMBER":4420,"TANK_NUMBER":5,"FACILITY_NAME":"DOLPHIN MARINE SVC INC","FACILITY_STREET_ADDRESS":"515 BASIN POINT RD","FACILITY_LOCATION_TOWN":"HARPSWELL","TANK_MATERIAL":"JACKETED_TANK_DBL_WALLED","TANK_ABOVE_BELOW":"B","TANK_STATUS":"ACTIVE","TANK_VOLUME":3000,"Notes":null}},{"type":"Feature","id":46,"geometry":{"type":"Point","coordinates":[-70.25295691961941,43.65093501742007]},"properties":{"OBJECTID":46,"REGISTRATION_NUMBER":2914,"TANK_NUMBER":3,"FACILITY_NAME":"VESSEL SVCS INC","FACILITY_STREET_ADDRESS":"ONE PORTLAND FISH PIER","FACILITY_LOCATION_TOWN":"PORTLAND","TANK_MATERIAL":"STEEL_ASPHALT_COATED","TANK_ABOVE_BELOW":"A","TANK_STATUS":"ACTIVE","TANK_VOLUME":500,"Notes":"On Pier"}},{"type":"Feature","id":47,"geometry":{"type":"Point","coordinates":[-70.27373229908684,43.678887158109355]},"properties":{"OBJECTID":47,"REGISTRATION_NUMBER":4262,"TANK_NUMBER":2,"FACILITY_NAME":"BAXTER BOULEVARD PUMP STATION","FACILITY_STREET_ADDRESS":"BAXTER BOULEVARD","FACILITY_LOCATION_TOWN":"PORTLAND","TANK_MATERIAL":"JACKETED_TANK_DBL_WALLED","TANK_ABOVE_BELOW":"B","TANK_STATUS":"ACTIVE","TANK_VOLUME":1000,"Notes":null}},{"type":"Feature","id":48,"geometry":{"type":"Point","coordinates":[-68.34752883931068,44.23800221520377]},"properties":{"OBJECTID":48,"REGISTRATION_NUMBER":12795,"TANK_NUMBER":3,"FACILITY_NAME":"CH RICH CO INC","FACILITY_STREET_ADDRESS":"SHORE RD","FACILITY_LOCATION_TOWN":"TREMONT","TANK_MATERIAL":"STEEL_ASPHALT_COATED","TANK_ABOVE_BELOW":"A","TANK_STATUS":"ACTIVE","TANK_VOLUME":2500,"Notes":"On Pier"}},{"type":"Feature","id":49,"geometry":{"type":"Point","coordinates":[-68.34764893447465,44.237886419651886]},"properties":{"OBJECTID":49,"REGISTRATION_NUMBER":12795,"TANK_NUMBER":4,"FACILITY_NAME":"CH RICH CO INC","FACILITY_STREET_ADDRESS":"SHORE RD","FACILITY_LOCATION_TOWN":"TREMONT","TANK_MATERIAL":"STEEL_ASPHALT_COATED","TANK_ABOVE_BELOW":"A","TANK_STATUS":"ACTIVE","TANK_VOLUME":3000,"Notes":"On Pier"}},{"type":"Feature","id":50,"geometry":{"type":"Point","coordinates":[-68.31280117467593,44.27533244584793]},"properties":{"OBJECTID":50,"REGISTRATION_NUMBER":6679,"TANK_NUMBER":3,"FACILITY_NAME":"H R  BEAL & SONS INC","FACILITY_STREET_ADDRESS":"CLARK POINT RD","FACILITY_LOCATION_TOWN":"SOUTHWEST HARBOR","TANK_MATERIAL":"F_GLASS_SEC_CONT_PETRO_ALCOHOL","TANK_ABOVE_BELOW":"B","TANK_STATUS":"ACTIVE","TANK_VOLUME":6000,"Notes":"On Pier"}},{"type":"Feature","id":51,"geometry":{"type":"Point","coordinates":[-68.31280117467593,44.27533244584793]},"properties":{"OBJECTID":51,"REGISTRATION_NUMBER":6679,"TANK_NUMBER":4,"FACILITY_NAME":"H R  BEAL & SONS INC","FACILITY_STREET_ADDRESS":"CLARK POINT RD","FACILITY_LOCATION_TOWN":"SOUTHWEST HARBOR","TANK_MATERIAL":"F_GLASS_SEC_CONT_PETRO_ALCOHOL","TANK_ABOVE_BELOW":"B","TANK_STATUS":"ACTIVE","TANK_VOLUME":10000,"Notes":"On Pier"}},{"type":"Feature","id":52,"geometry":{"type":"Point","coordinates":[-69.10496777178196,44.107465835903106]},"properties":{"OBJECTID":52,"REGISTRATION_NUMBER":7902,"TANK_NUMBER":5,"FACILITY_NAME":"FMC CORP MARINE COLLOIDS DIV","FACILITY_STREET_ADDRESS":"CROCKETTS POINT","FACILITY_LOCATION_TOWN":"ROCKLAND","TANK_MATERIAL":"STEEL_ASPHALT_COATED","TANK_ABOVE_BELOW":"A","TANK_STATUS":"ACTIVE","TANK_VOLUME":19099,"Notes":"On Pier"}},{"type":"Feature","id":53,"geometry":{"type":"Point","coordinates":[-69.10496777178196,44.107465835903106]},"properties":{"OBJECTID":53,"REGISTRATION_NUMBER":7902,"TANK_NUMBER":4,"FACILITY_NAME":"FMC CORP MARINE COLLOIDS DIV","FACILITY_STREET_ADDRESS":"CROCKETTS POINT","FACILITY_LOCATION_TOWN":"ROCKLAND","TANK_MATERIAL":"STEEL_ASPHALT_COATED","TANK_ABOVE_BELOW":"A","TANK_STATUS":"ACTIVE","TANK_VOLUME":35284,"Notes":"On Pier"}},{"type":"Feature","id":54,"geometry":{"type":"Point","coordinates":[-69.10496777178196,44.107465835903106]},"properties":{"OBJECTID":54,"REGISTRATION_NUMBER":7902,"TANK_NUMBER":4,"FACILITY_NAME":"FMC CORP MARINE COLLOIDS DIV","FACILITY_STREET_ADDRESS":"CROCKETTS POINT","FACILITY_LOCATION_TOWN":"ROCKLAND","TANK_MATERIAL":"STEEL_ASPHALT_COATED","TANK_ABOVE_BELOW":"A","TANK_STATUS":"ACTIVE","TANK_VOLUME":35284,"Notes":"On Pier"}},{"type":"Feature","id":55,"geometry":{"type":"Point","coordinates":[-70.47323462377264,43.35554193370211]},"properties":{"OBJECTID":55,"REGISTRATION_NUMBER":480,"TANK_NUMBER":5,"FACILITY_NAME":"CHICKS MARINA","FACILITY_STREET_ADDRESS":"75 OCEAN AVE","FACILITY_LOCATION_TOWN":"KENNEBUNKPORT","TANK_MATERIAL":"JACKETED_TANK_DBL_WALLED","TANK_ABOVE_BELOW":"B","TANK_STATUS":"ACTIVE","TANK_VOLUME":5000,"Notes":null}},{"type":"Feature","id":56,"geometry":{"type":"Point","coordinates":[-70.47919706251965,43.360399578688494]},"properties":{"OBJECTID":56,"REGISTRATION_NUMBER":11784,"TANK_NUMBER":9,"FACILITY_NAME":"BIG APPLE KENNEBUNK","FACILITY_STREET_ADDRESS":"6 WESTERN AVE","FACILITY_LOCATION_TOWN":"KENNEBUNK","TANK_MATERIAL":"F_GLASS_SEC_CONT_PETRO_ALCOHOL","TANK_ABOVE_BELOW":"B","TANK_STATUS":"ACTIVE","TANK_VOLUME":12500,"Notes":null}},{"type":"Feature","id":57,"geometry":{"type":"Point","coordinates":[-70.27617700479294,43.63618958225624]},"properties":{"OBJECTID":57,"REGISTRATION_NUMBER":10400,"TANK_NUMBER":10,"FACILITY_NAME":"GLOBAL COMPANIES LLC","FACILITY_STREET_ADDRESS":"1 CLARKS RD","FACILITY_LOCATION_TOWN":"SOUTH PORTLAND","TANK_MATERIAL":"STEEL_ASPHALT_COATED","TANK_ABOVE_BELOW":"A","TANK_STATUS":"ACTIVE","TANK_VOLUME":2272242,"Notes":null}},{"type":"Feature","id":58,"geometry":{"type":"Point","coordinates":[-69.5842110672592,43.86567766457007]},"properties":{"OBJECTID":58,"REGISTRATION_NUMBER":18616,"TANK_NUMBER":2,"FACILITY_NAME":"OCEAN POINT MARINA","FACILITY_STREET_ADDRESS":"RT 96","FACILITY_LOCATION_TOWN":"BOOTHBAY","TANK_MATERIAL":"F_GLASS_SEC_CONT_PETRO_ALCOHOL","TANK_ABOVE_BELOW":"B","TANK_STATUS":"ACTIVE","TANK_VOLUME":6000,"Notes":null}},{"type":"Feature","id":59,"geometry":{"type":"Point","coordinates":[-69.10821349014203,44.10679801716172]},"properties":{"OBJECTID":59,"REGISTRATION_NUMBER":19252,"TANK_NUMBER":2,"FACILITY_NAME":"ROCKLAND FERRY TERMINAL","FACILITY_STREET_ADDRESS":"17A MAINE ST","FACILITY_LOCATION_TOWN":"ROCKLAND","TANK_MATERIAL":"F_GLASS_SEC_CONT_PETRO_ALCOHOL","TANK_ABOVE_BELOW":"B","TANK_STATUS":"ACTIVE","TANK_VOLUME":12000,"Notes":null}},{"type":"Feature","id":60,"geometry":{"type":"Point","coordinates":[-69.89276302561453,43.78932963393409]},"properties":{"OBJECTID":60,"REGISTRATION_NUMBER":19341,"TANK_NUMBER":1,"FACILITY_NAME":"CUNDY HARBOR WHARF","FACILITY_STREET_ADDRESS":"CUNDY HARBOR RD","FACILITY_LOCATION_TOWN":"CUNDYS HARBOR","TANK_MATERIAL":"JACKETED_TANK_DBL_WALLED","TANK_ABOVE_BELOW":"B","TANK_STATUS":"ACTIVE","TANK_VOLUME":6000,"Notes":null}},{"type":"Feature","id":61,"geometry":{"type":"Point","coordinates":[-69.55850343020525,43.862489160415166]},"properties":{"OBJECTID":61,"REGISTRATION_NUMBER":1972,"TANK_NUMBER":5,"FACILITY_NAME":"OSIERS WHARF","FACILITY_STREET_ADDRESS":"2104 STATE ROUTE 129","FACILITY_LOCATION_TOWN":"SOUTH BRISTOL","TANK_MATERIAL":"STEEL_ASPHALT_COATED","TANK_ABOVE_BELOW":"A","TANK_STATUS":"ACTIVE","TANK_VOLUME":2000,"Notes":"On Pier"}},{"type":"Feature","id":62,"geometry":{"type":"Point","coordinates":[-68.78444870331599,44.77807737809978]},"properties":{"OBJECTID":62,"REGISTRATION_NUMBER":19859,"TANK_NUMBER":2,"FACILITY_NAME":"COLDBROOK ENERGY INC","FACILITY_STREET_ADDRESS":"809 MAIN RD NORTH","FACILITY_LOCATION_TOWN":"HAMPDEN","TANK_MATERIAL":"JACKETED_TANK_DBL_WALLED","TANK_ABOVE_BELOW":"B","TANK_STATUS":"ACTIVE","TANK_VOLUME":550,"Notes":null}},{"type":"Feature","id":63,"geometry":{"type":"Point","coordinates":[-70.23131843042381,43.648825758569856]},"properties":{"OBJECTID":63,"REGISTRATION_NUMBER":19982,"TANK_NUMBER":4,"FACILITY_NAME":"SPRING POINT MARINA","FACILITY_STREET_ADDRESS":"1 SPRING POINT DR","FACILITY_LOCATION_TOWN":"SOUTH PORTLAND","TANK_MATERIAL":"F_GLASS_SEC_CONT_PETRO_ALCOHOL","TANK_ABOVE_BELOW":"B","TANK_STATUS":"ACTIVE","TANK_VOLUME":10000,"Notes":null}},{"type":"Feature","id":64,"geometry":{"type":"Point","coordinates":[-68.20645493534664,44.39153284998877]},"properties":{"OBJECTID":64,"REGISTRATION_NUMBER":20408,"TANK_NUMBER":4,"FACILITY_NAME":"HARBORSIDE HOTEL & MARINA","FACILITY_STREET_ADDRESS":"55 WEST ST","FACILITY_LOCATION_TOWN":"BAR HARBOR","TANK_MATERIAL":"JACKETED_TANK_DBL_WALLED","TANK_ABOVE_BELOW":"B","TANK_STATUS":"ACTIVE","TANK_VOLUME":20000,"Notes":null}},{"type":"Feature","id":65,"geometry":{"type":"Point","coordinates":[-70.25386344743364,43.642177177666426]},"properties":{"OBJECTID":65,"REGISTRATION_NUMBER":21125,"TANK_NUMBER":3,"FACILITY_NAME":"SOUTH PORT MARINA","FACILITY_STREET_ADDRESS":"14 OCEAN AVE","FACILITY_LOCATION_TOWN":"SOUTH PORTLAND","TANK_MATERIAL":"STEEL_ASPHALT_COATED","TANK_ABOVE_BELOW":"A","TANK_STATUS":"ACTIVE","TANK_VOLUME":500,"Notes":"On Pier"}},{"type":"Feature","id":66,"geometry":{"type":"Point","coordinates":[-70.25386344743364,43.642177177666426]},"properties":{"OBJECTID":66,"REGISTRATION_NUMBER":21125,"TANK_NUMBER":2,"FACILITY_NAME":"SOUTH PORT MARINA","FACILITY_STREET_ADDRESS":"14 OCEAN AVE","FACILITY_LOCATION_TOWN":"SOUTH PORTLAND","TANK_MATERIAL":"STEEL_ASPHALT_COATED","TANK_ABOVE_BELOW":"A","TANK_STATUS":"ACTIVE","TANK_VOLUME":500,"Notes":"On Pier"}},{"type":"Feature","id":67,"geometry":{"type":"Point","coordinates":[-70.25386344743364,43.642177177666426]},"properties":{"OBJECTID":67,"REGISTRATION_NUMBER":21125,"TANK_NUMBER":4,"FACILITY_NAME":"SOUTH PORT MARINA","FACILITY_STREET_ADDRESS":"14 OCEAN AVE","FACILITY_LOCATION_TOWN":"SOUTH PORTLAND","TANK_MATERIAL":"STEEL_ASPHALT_COATED","TANK_ABOVE_BELOW":"A","TANK_STATUS":"ACTIVE","TANK_VOLUME":500,"Notes":"On Pier"}},{"type":"Feature","id":68,"geometry":{"type":"Point","coordinates":[-70.25386344743364,43.642177177666426]},"properties":{"OBJECTID":68,"REGISTRATION_NUMBER":21125,"TANK_NUMBER":5,"FACILITY_NAME":"SOUTH PORT MARINA","FACILITY_STREET_ADDRESS":"14 OCEAN AVE","FACILITY_LOCATION_TOWN":"SOUTH PORTLAND","TANK_MATERIAL":"STEEL_ASPHALT_COATED","TANK_ABOVE_BELOW":"A","TANK_STATUS":"ACTIVE","TANK_VOLUME":500,"Notes":"On Pier"}},{"type":"Feature","id":69,"geometry":{"type":"Point","coordinates":[-70.25389992812214,43.64187925112066]},"properties":{"OBJECTID":69,"REGISTRATION_NUMBER":21125,"TANK_NUMBER":1,"FACILITY_NAME":"SOUTH PORT MARINA","FACILITY_STREET_ADDRESS":"14 OCEAN AVE","FACILITY_LOCATION_TOWN":"SOUTH PORTLAND","TANK_MATERIAL":"STEEL_ASPHALT_COATED","TANK_ABOVE_BELOW":"A","TANK_STATUS":"PLANNED","TANK_VOLUME":2000,"Notes":null}},{"type":"Feature","id":70,"geometry":{"type":"Point","coordinates":[-69.1029835473668,44.10494635099188]},"properties":{"OBJECTID":70,"REGISTRATION_NUMBER":21128,"TANK_NUMBER":1,"FACILITY_NAME":"JORNEYS END MARINA","FACILITY_STREET_ADDRESS":"120 TILLSON AVE","FACILITY_LOCATION_TOWN":"ROCKLAND","TANK_MATERIAL":"STEEL_ASPHALT_COATED","TANK_ABOVE_BELOW":"A","TANK_STATUS":"ACTIVE","TANK_VOLUME":10000,"Notes":"On Pier"}},{"type":"Feature","id":71,"geometry":{"type":"Point","coordinates":[-69.10322521936357,44.104557538605725]},"properties":{"OBJECTID":71,"REGISTRATION_NUMBER":21128,"TANK_NUMBER":2,"FACILITY_NAME":"JORNEYS END MARINA","FACILITY_STREET_ADDRESS":"120 TILLSON AVE","FACILITY_LOCATION_TOWN":"ROCKLAND","TANK_MATERIAL":"STEEL_ASPHALT_COATED","TANK_ABOVE_BELOW":"A","TANK_STATUS":"ACTIVE","TANK_VOLUME":12500,"Notes":"On Pier"}},{"type":"Feature","id":72,"geometry":{"type":"Point","coordinates":[-67.59674388106347,44.53075240127709]},"properties":{"OBJECTID":72,"REGISTRATION_NUMBER":21178,"TANK_NUMBER":3,"FACILITY_NAME":"OW & BS LOOK CO INC","FACILITY_STREET_ADDRESS":"32  OLD HOUSE PT","FACILITY_LOCATION_TOWN":"JONESPORT","TANK_MATERIAL":"STEEL_SECONDARY_CONTAINMENT","TANK_ABOVE_BELOW":"A","TANK_STATUS":"PLANNED","TANK_VOLUME":2000,"Notes":null}},{"type":"Feature","id":73,"geometry":{"type":"Point","coordinates":[-68.02156112211723,44.39892162875833]},"properties":{"OBJECTID":73,"REGISTRATION_NUMBER":21197,"TANK_NUMBER":1,"FACILITY_NAME":"LIGHTHOUSE LOBSTER CO.","FACILITY_STREET_ADDRESS":"ROUTE 186 ","FACILITY_LOCATION_TOWN":"PROSPECT HARBOR","TANK_MATERIAL":"STEEL_ASPHALT_COATED","TANK_ABOVE_BELOW":"A","TANK_STATUS":"ACTIVE","TANK_VOLUME":2000,"Notes":"On Pier"}},{"type":"Feature","id":74,"geometry":{"type":"Point","coordinates":[-68.93911923892846,44.25919206390092]},"properties":{"OBJECTID":74,"REGISTRATION_NUMBER":21237,"TANK_NUMBER":1,"FACILITY_NAME":"DARK HARBOR BOAT YARD CORP","FACILITY_STREET_ADDRESS":"700 ACRE ISLAND","FACILITY_LOCATION_TOWN":"ISLESBORO","TANK_MATERIAL":"STEEL_ASPHALT_COATED","TANK_ABOVE_BELOW":"A","TANK_STATUS":"ACTIVE","TANK_VOLUME":8000,"Notes":"On Pier"}},{"type":"Feature","id":75,"geometry":{"type":"Point","coordinates":[-68.45011693788236,44.14266737801829]},"properties":{"OBJECTID":75,"REGISTRATION_NUMBER":21239,"TANK_NUMBER":2,"FACILITY_NAME":"SWANS ISLAND FISHERMANS CO-OP","FACILITY_STREET_ADDRESS":"15 MORSES HILL RD","FACILITY_LOCATION_TOWN":"SWANS ISLAND","TANK_MATERIAL":"STEEL_ASPHALT_COATED","TANK_ABOVE_BELOW":"A","TANK_STATUS":"ACTIVE","TANK_VOLUME":10000,"Notes":"On Pier"}},{"type":"Feature","id":76,"geometry":{"type":"Point","coordinates":[-68.45011693788236,44.14266737801829]},"properties":{"OBJECTID":76,"REGISTRATION_NUMBER":21239,"TANK_NUMBER":1,"FACILITY_NAME":"SWANS ISLAND FISHERMANS CO-OP","FACILITY_STREET_ADDRESS":"15 MORSES HILL RD","FACILITY_LOCATION_TOWN":"SWANS ISLAND","TANK_MATERIAL":"STEEL_ASPHALT_COATED","TANK_ABOVE_BELOW":"A","TANK_STATUS":"ACTIVE","TANK_VOLUME":10000,"Notes":"On Pier"}},{"type":"Feature","id":77,"geometry":{"type":"Point","coordinates":[-68.838638228251,44.04388190063333]},"properties":{"OBJECTID":77,"REGISTRATION_NUMBER":21346,"TANK_NUMBER":1,"FACILITY_NAME":"INLAND LOBSTER COMPANY","FACILITY_STREET_ADDRESS":"5 WEST MAIN STREET","FACILITY_LOCATION_TOWN":"VINALHABEN","TANK_MATERIAL":"STEEL_SECONDARY_CONTAINMENT","TANK_ABOVE_BELOW":"A","TANK_STATUS":"ACTIVE","TANK_VOLUME":4000,"Notes":"On Pier"}},{"type":"Feature","id":78,"geometry":{"type":"Point","coordinates":[-69.34077872871323,43.97047343065733]},"properties":{"OBJECTID":78,"REGISTRATION_NUMBER":21392,"TANK_NUMBER":1,"FACILITY_NAME":"WALLACE LOBSTER","FACILITY_STREET_ADDRESS":"647 CUSHING ROAD","FACILITY_LOCATION_TOWN":"FRIENDSHIP","TANK_MATERIAL":"STEEL_SECONDARY_CONTAINMENT","TANK_ABOVE_BELOW":"A","TANK_STATUS":"PLANNED","TANK_VOLUME":1000,"Notes":"On Pier"}},{"type":"Feature","id":79,"geometry":{"type":"Point","coordinates":[-69.64287668577221,43.84353720062199]},"properties":{"OBJECTID":79,"REGISTRATION_NUMBER":21441,"TANK_NUMBER":1,"FACILITY_NAME":"U S COAST GUARD STATION","FACILITY_STREET_ADDRESS":"MCKOWN POINT ROAD","FACILITY_LOCATION_TOWN":"BOOTHBAY HARBOR","TANK_MATERIAL":"STEEL_ASPHALT_COATED","TANK_ABOVE_BELOW":"A","TANK_STATUS":"ACTIVE","TANK_VOLUME":270,"Notes":"On Pier"}},{"type":"Feature","id":80,"geometry":{"type":"Point","coordinates":[-69.10280711593478,44.112236135475676]},"properties":{"OBJECTID":80,"REGISTRATION_NUMBER":21646,"TANK_NUMBER":2,"FACILITY_NAME":"JOURNEYS END MARINA","FACILITY_STREET_ADDRESS":"FRONT STREET","FACILITY_LOCATION_TOWN":"ROCKLAND","TANK_MATERIAL":"STEEL_SECONDARY_CONTAINMENT","TANK_ABOVE_BELOW":"A","TANK_STATUS":"ACTIVE","TANK_VOLUME":15000,"Notes":"On Pier"}},{"type":"Feature","id":81,"geometry":{"type":"Point","coordinates":[-68.31261067611739,44.27515516471648]},"properties":{"OBJECTID":81,"REGISTRATION_NUMBER":6629,"TANK_NUMBER":3,"FACILITY_NAME":"US COAST GUARD BASE","FACILITY_STREET_ADDRESS":"184 CLARK POINT ROAD","FACILITY_LOCATION_TOWN":"SOUTHWEST HARBOR","TANK_MATERIAL":"STEEL_ASPHALT_COATED","TANK_ABOVE_BELOW":"A","TANK_STATUS":"PLANNED","TANK_VOLUME":50,"Notes":"On Pier"}},{"type":"Feature","id":82,"geometry":{"type":"Point","coordinates":[-68.31293306791684,44.275035720567736]},"properties":{"OBJECTID":82,"REGISTRATION_NUMBER":6629,"TANK_NUMBER":4,"FACILITY_NAME":"US COAST GUARD BASE","FACILITY_STREET_ADDRESS":"184 CLARK POINT ROAD","FACILITY_LOCATION_TOWN":"SOUTHWEST HARBOR","TANK_MATERIAL":"STEEL_ASPHALT_COATED","TANK_ABOVE_BELOW":"A","TANK_STATUS":"PLANNED","TANK_VOLUME":3000,"Notes":"On Pier"}},{"type":"Feature","id":83,"geometry":{"type":"Point","coordinates":[-68.31270973272808,44.275130551298304]},"properties":{"OBJECTID":83,"REGISTRATION_NUMBER":6629,"TANK_NUMBER":2,"FACILITY_NAME":"US COAST GUARD BASE","FACILITY_STREET_ADDRESS":"184 CLARK POINT ROAD","FACILITY_LOCATION_TOWN":"SOUTHWEST HARBOR","TANK_MATERIAL":"STEEL_ASPHALT_COATED","TANK_ABOVE_BELOW":"A","TANK_STATUS":"PLANNED","TANK_VOLUME":275,"Notes":"On Pier"}},{"type":"Feature","id":84,"geometry":{"type":"Point","coordinates":[-70.76770556993013,43.09646382895639]},"properties":{"OBJECTID":84,"REGISTRATION_NUMBER":7003,"TANK_NUMBER":4,"FACILITY_NAME":"GREAT COVE BOAT CLUB","FACILITY_STREET_ADDRESS":"ONE MAIN ST","FACILITY_LOCATION_TOWN":"ELIOT","TANK_MATERIAL":"JACKETED_TANK_DBL_WALLED","TANK_ABOVE_BELOW":"B","TANK_STATUS":"ACTIVE","TANK_VOLUME":1146,"Notes":null}},{"type":"Feature","id":85,"geometry":{"type":"Point","coordinates":[-70.03073272107305,43.74704726246212]},"properties":{"OBJECTID":85,"REGISTRATION_NUMBER":16799,"TANK_NUMBER":3,"FACILITY_NAME":"INTERSTATE LOBSTER INC","FACILITY_STREET_ADDRESS":"ASH POINT RD","FACILITY_LOCATION_TOWN":"HARPSWELL","TANK_MATERIAL":"STEEL_ASPHALT_COATED","TANK_ABOVE_BELOW":"A","TANK_STATUS":"ACTIVE","TANK_VOLUME":3000,"Notes":null}},{"type":"Feature","id":86,"geometry":{"type":"Point","coordinates":[-69.20368998395152,43.965876517688166]},"properties":{"OBJECTID":86,"REGISTRATION_NUMBER":551,"TANK_NUMBER":4,"FACILITY_NAME":"ARTS LOBSTERS INC","FACILITY_STREET_ADDRESS":"BARTERS POINT RD","FACILITY_LOCATION_TOWN":"ST GEORGE","TANK_MATERIAL":"STEEL_ASPHALT_COATED","TANK_ABOVE_BELOW":"A","TANK_STATUS":"ACTIVE","TANK_VOLUME":4000,"Notes":null}},{"type":"Feature","id":87,"geometry":{"type":"Point","coordinates":[-69.30069534299889,43.95649080683636]},"properties":{"OBJECTID":87,"REGISTRATION_NUMBER":4660,"TANK_NUMBER":3,"FACILITY_NAME":"KIPS SEAFOOD CO","FACILITY_STREET_ADDRESS":"HARBOR LANE","FACILITY_LOCATION_TOWN":"CUSHING","TANK_MATERIAL":"STEEL_ASPHALT_COATED","TANK_ABOVE_BELOW":"A","TANK_STATUS":"ACTIVE","TANK_VOLUME":4000,"Notes":null}},{"type":"Feature","id":88,"geometry":{"type":"Point","coordinates":[-70.26502723964073,43.66037268965721]},"properties":{"OBJECTID":88,"REGISTRATION_NUMBER":14429,"TANK_NUMBER":9,"FACILITY_NAME":"US POSTAL VEHICLE MAINT","FACILITY_STREET_ADDRESS":"171 KENNEBEC ST","FACILITY_LOCATION_TOWN":"PORTLAND","TANK_MATERIAL":"F_GLASS_SEC_CONT_PETRO_ALCOHOL","TANK_ABOVE_BELOW":"B","TANK_STATUS":"ACTIVE","TANK_VOLUME":15000,"Notes":null}},{"type":"Feature","id":89,"geometry":{"type":"Point","coordinates":[-70.24772779860685,43.64585299563294]},"properties":{"OBJECTID":89,"REGISTRATION_NUMBER":1662,"TANK_NUMBER":7,"FACILITY_NAME":"US COAST GUARD","FACILITY_STREET_ADDRESS":"259 HIGH ST","FACILITY_LOCATION_TOWN":"SOUTH PORTLAND","TANK_MATERIAL":"STEEL_SECONDARY_CONTAINMENT","TANK_ABOVE_BELOW":"A","TANK_STATUS":"ACTIVE","TANK_VOLUME":3000,"Notes":"On Pier"}},{"type":"Feature","id":90,"geometry":{"type":"Point","coordinates":[-70.24770299840878,43.645831166123415]},"properties":{"OBJECTID":90,"REGISTRATION_NUMBER":1662,"TANK_NUMBER":8,"FACILITY_NAME":"US COAST GUARD","FACILITY_STREET_ADDRESS":"259 HIGH ST","FACILITY_LOCATION_TOWN":"SOUTH PORTLAND","TANK_MATERIAL":"STEEL_SECONDARY_CONTAINMENT","TANK_ABOVE_BELOW":"A","TANK_STATUS":"ACTIVE","TANK_VOLUME":500,"Notes":"On Pier"}},{"type":"Feature","id":91,"geometry":{"type":"Point","coordinates":[-69.64287668577221,43.84353720062199]},"properties":{"OBJECTID":91,"REGISTRATION_NUMBER":21441,"TANK_NUMBER":2,"FACILITY_NAME":"U S COAST GUARD STATION","FACILITY_STREET_ADDRESS":"MCKOWN POINT ROAD","FACILITY_LOCATION_TOWN":"BOOTHBAY HARBOR","TANK_MATERIAL":"STEEL_SECONDARY_CONTAINMENT","TANK_ABOVE_BELOW":"A","TANK_STATUS":"ACTIVE","TANK_VOLUME":2000,"Notes":"On Pier"}},{"type":"Feature","id":92,"geometry":{"type":"Point","coordinates":[-68.32335917159736,44.274779947263056]},"properties":{"OBJECTID":92,"REGISTRATION_NUMBER":21598,"TANK_NUMBER":1,"FACILITY_NAME":"GREAT HARBOR MARINA INC","FACILITY_STREET_ADDRESS":"11 APPLE LANE","FACILITY_LOCATION_TOWN":"SOUTHWEST HARBOR","TANK_MATERIAL":"STEEL_SECONDARY_CONTAINMENT","TANK_ABOVE_BELOW":"A","TANK_STATUS":"PLANNED","TANK_VOLUME":3000,"Notes":"On Pier"}},{"type":"Feature","id":93,"geometry":{"type":"Point","coordinates":[-70.79136933916874,43.10929186393694]},"properties":{"OBJECTID":93,"REGISTRATION_NUMBER":21715,"TANK_NUMBER":1,"FACILITY_NAME":"RIVERSIDE & PICKERING MARINE CONTRACTORS","FACILITY_STREET_ADDRESS":"857 MAIN STREET","FACILITY_LOCATION_TOWN":"ELIOT","TANK_MATERIAL":"STEEL_ASPHALT_COATED","TANK_ABOVE_BELOW":"A","TANK_STATUS":"PLANNED","TANK_VOLUME":275,"Notes":null}},{"type":"Feature","id":94,"geometry":{"type":"Point","coordinates":[-70.79136933916874,43.10929186393694]},"properties":{"OBJECTID":94,"REGISTRATION_NUMBER":21715,"TANK_NUMBER":2,"FACILITY_NAME":"RIVERSIDE & PICKERING MARINE CONTRACTORS","FACILITY_STREET_ADDRESS":"857 MAIN STREET","FACILITY_LOCATION_TOWN":"ELIOT","TANK_MATERIAL":"STEEL_ASPHALT_COATED","TANK_ABOVE_BELOW":"A","TANK_STATUS":"PLANNED","TANK_VOLUME":275,"Notes":null}},{"type":"Feature","id":95,"geometry":{"type":"Point","coordinates":[-68.64216808876255,44.17368394202832]},"properties":{"OBJECTID":95,"REGISTRATION_NUMBER":21781,"TANK_NUMBER":1,"FACILITY_NAME":"LOBSTER WEB CO LLC","FACILITY_STREET_ADDRESS":"97 SETTLEMENT ROAD","FACILITY_LOCATION_TOWN":"STONINGTON","TANK_MATERIAL":"STEEL_ASPHALT_COATED","TANK_ABOVE_BELOW":"A","TANK_STATUS":"PLANNED","TANK_VOLUME":5000,"Notes":"On Pier"}},{"type":"Feature","id":96,"geometry":{"type":"Point","coordinates":[-69.19648330559284,43.98757976595215]},"properties":{"OBJECTID":96,"REGISTRATION_NUMBER":21880,"TANK_NUMBER":1,"FACILITY_NAME":"SEA HAG FISH & LOBSTER","FACILITY_STREET_ADDRESS":"56 MUSSEL FARM ROAD","FACILITY_LOCATION_TOWN":"ST GEORGE","TANK_MATERIAL":"STEEL_ASPHALT_COATED","TANK_ABOVE_BELOW":"A","TANK_STATUS":"ACTIVE","TANK_VOLUME":1000,"Notes":null}},{"type":"Feature","id":97,"geometry":{"type":"Point","coordinates":[-69.12137038965639,43.996499712609655]},"properties":{"OBJECTID":97,"REGISTRATION_NUMBER":21996,"TANK_NUMBER":3,"FACILITY_NAME":"ATWOOD LOBSTER","FACILITY_STREET_ADDRESS":"286 ISLAND ROAD","FACILITY_LOCATION_TOWN":"SPRUCE HEAD","TANK_MATERIAL":"STEEL_ASPHALT_COATED","TANK_ABOVE_BELOW":"A","TANK_STATUS":"PLANNED","TANK_VOLUME":275,"Notes":null}},{"type":"Feature","id":98,"geometry":{"type":"Point","coordinates":[-69.12137038965639,43.996499712609655]},"properties":{"OBJECTID":98,"REGISTRATION_NUMBER":21996,"TANK_NUMBER":2,"FACILITY_NAME":"ATWOOD LOBSTER","FACILITY_STREET_ADDRESS":"286 ISLAND ROAD","FACILITY_LOCATION_TOWN":"SPRUCE HEAD","TANK_MATERIAL":"STEEL_ASPHALT_COATED","TANK_ABOVE_BELOW":"A","TANK_STATUS":"PLANNED","TANK_VOLUME":275,"Notes":null}},{"type":"Feature","id":99,"geometry":{"type":"Point","coordinates":[-69.12121379403185,43.996167327657744]},"properties":{"OBJECTID":99,"REGISTRATION_NUMBER":21996,"TANK_NUMBER":1,"FACILITY_NAME":"ATWOOD LOBSTER","FACILITY_STREET_ADDRESS":"286 ISLAND ROAD","FACILITY_LOCATION_TOWN":"SPRUCE HEAD","TANK_MATERIAL":"STEEL_ASPHALT_COATED","TANK_ABOVE_BELOW":"A","TANK_STATUS":"PLANNED","TANK_VOLUME":5000,"Notes":null}},{"type":"Feature","id":100,"geometry":{"type":"Point","coordinates":[-69.07283467031338,44.18639705809556]},"properties":{"OBJECTID":100,"REGISTRATION_NUMBER":21921,"TANK_NUMBER":1,"FACILITY_NAME":"MAINELY LOBSTER & SEAFOOD INC","FACILITY_STREET_ADDRESS":"ROCKPORT HARBOR","FACILITY_LOCATION_TOWN":"ROCKPORT","TANK_MATERIAL":"STEEL_ASPHALT_COATED","TANK_ABOVE_BELOW":"A","TANK_STATUS":"ACTIVE","TANK_VOLUME":500,"Notes":null}},{"type":"Feature","id":101,"geometry":{"type":"Point","coordinates":[-69.07283467031338,44.18639705809556]},"properties":{"OBJECTID":101,"REGISTRATION_NUMBER":21921,"TANK_NUMBER":2,"FACILITY_NAME":"MAINELY LOBSTER & SEAFOOD INC","FACILITY_STREET_ADDRESS":"ROCKPORT HARBOR","FACILITY_LOCATION_TOWN":"ROCKPORT","TANK_MATERIAL":"STEEL_ASPHALT_COATED","TANK_ABOVE_BELOW":"A","TANK_STATUS":"PLANNED","TANK_VOLUME":1000,"Notes":null}},{"type":"Feature","id":102,"geometry":{"type":"Point","coordinates":[-69.20404168176346,43.96578407816998]},"properties":{"OBJECTID":102,"REGISTRATION_NUMBER":21992,"TANK_NUMBER":1,"FACILITY_NAME":"TENANTS HARBOR BOAT YARD","FACILITY_STREET_ADDRESS":"3 BOATYARD ROAD","FACILITY_LOCATION_TOWN":"ST. GEORGE","TANK_MATERIAL":"STEEL_ASPHALT_COATED","TANK_ABOVE_BELOW":"A","TANK_STATUS":"PLANNED","TANK_VOLUME":2000,"Notes":"On Pier"}}]}