{"type":"FeatureCollection","metadata":{"source_key":"dep_8_8ft_slr_mepdes_facility","source_name":"Maine DEP Sea Level Rise Study","source_url":"https://gis.maine.gov/mapservices/rest/services/dep/MaineDEPSeaLevelRiseStudy/MapServer/12","feature_count":5,"feature_cap":5},"features":[{"type":"Feature","id":1,"geometry":{"type":"Point","coordinates":[-68.08744927694849,44.39489158036974]},"properties":{"OBJECTID":1,"SITE_NAME":"WINTER HARBOR WWTF","COMPANY_NAME":"WINTER HARBOR UTILITIES DISTRICT","ADDRESS_1":"39 MEADOW LN","CITY":"WINTER HARBOR","NEPDES_LICENSE_ID":"ME0100731","MAINE_LICENSE_ID":"W-000562","Notes":null,"SITE_TYPE":"Wastewater Treatment Facility"}},{"type":"Feature","id":2,"geometry":{"type":"Point","coordinates":[-68.91347119494894,44.26002919042937]},"properties":{"OBJECTID":2,"SITE_NAME":"DARK HARBOR WWTF","COMPANY_NAME":"ISLESBORO TOWN OF","ADDRESS_1":"524 PENDLETON POINT RD","CITY":"ISLESBORO","NEPDES_LICENSE_ID":"ME0100269","MAINE_LICENSE_ID":"W-002726","Notes":null,"SITE_TYPE":"Wastewater Treatment Facility"}},{"type":"Feature","id":3,"geometry":{"type":"Point","coordinates":[-70.34876159893544,43.44733507361748]},"properties":{"OBJECTID":3,"SITE_NAME":"BIDDEFORD POOL  WWTF","COMPANY_NAME":"BIDDEFORD CITY OF","ADDRESS_1":"12 STONECLIFF RD","CITY":"BIDDEFORD","NEPDES_LICENSE_ID":"ME0102741","MAINE_LICENSE_ID":"W-007581","Notes":null,"SITE_TYPE":"Wastewater Treatment Facility"}},{"type":"Feature","id":4,"geometry":{"type":"Point","coordinates":[-69.81525323659761,43.91000164648557]},"properties":{"OBJECTID":4,"SITE_NAME":"BATH IRON WORKS","COMPANY_NAME":"BATH IRON WORKS CORPORATION","ADDRESS_1":"700 WASHINGTON ST","CITY":"BATH","NEPDES_LICENSE_ID":"ME0001732","MAINE_LICENSE_ID":"W-000671","Notes":null,"SITE_TYPE":"Industrial Facility"}},{"type":"Feature","id":5,"geometry":{"type":"Point","coordinates":[-67.59874347915444,44.52959233374155]},"properties":{"OBJECTID":5,"SITE_NAME":"MOOSABEC MUSSELS INC","COMPANY_NAME":"MOOSABEC MUSSELS, INC.","ADDRESS_1":"OLD HOUSE POINT RD","CITY":"JONESPORT","NEPDES_LICENSE_ID":"ME0110248","MAINE_LICENSE_ID":"W-008152","Notes":null,"SITE_TYPE":"Seafood Business"}}]}